[{"datasetid": "solidarite-alimentaire-en-occitanie", "recordid": "4f6233bac5ff9d3c1c2cc5ff0a516fdb481a4d63", "fields": {"geo_shape": {"coordinates": [2.25280863946562, 44.5593365207065], "type": "Point"}, "objectid": 462, "organisme_coordinateur": "SPF F\u00e9d\u00e9ration aveyron", "association": "Secours populaire : Decazeville", "adresse_du_lieu": "12, av cabrol", "geo_point_2d": [44.5593365207065, 2.25280863946562], "code_postal": "12300", "horaires_de_distribution": "Lundi de 14h - 17h", "ville": "decazeville", "departement": "12"}, "geometry": {"type": "Point", "coordinates": [2.25280863946562, 44.5593365207065]}, "record_timestamp": "2022-04-11T07:02:22.624+02:00"},{"datasetid": "solidarite-alimentaire-en-occitanie", "recordid": "d35bf8267c424a0775fd11c6115ff97eae9f5ed6", "fields": {"geo_shape": {"coordinates": [2.58017372746872, 44.3607487856615], "type": "Point"}, "objectid": 461, "organisme_coordinateur": "SPF F\u00e9d\u00e9ration aveyron", "association": "Secours populaire : Rodez", "adresse_du_lieu": "3bis rue de la gare", "geo_point_2d": [44.3607487856615, 2.58017372746872], "code_postal": "12000", "horaires_de_distribution": "jeudi 9h - 12 h et 14h - 16h30", "ville": "Rodez", "departement": "12"}, "geometry": {"type": "Point", "coordinates": [2.58017372746872, 44.3607487856615]}, "record_timestamp": "2022-04-11T07:02:22.624+02:00"},{"datasetid": "solidarite-alimentaire-en-occitanie", "recordid": "726293c0403f219dfdf74712022a62111d9ddcb2", "fields": {"geo_shape": {"coordinates": [1.61922192974039, 43.1196476066384], "type": "Point"}, "objectid": 452, "organisme_coordinateur": "SPF F\u00e9d\u00e9ration Ari\u00e8ge", "association": "Secours populaire : Pamiers", "adresse_du_lieu": "26, chemin de la chartreuse", "geo_point_2d": [43.1196476066384, 1.61922192974039], "code_postal": "09100", "horaires_de_distribution": "Lundi de 14h - 17h", "ville": "Pamiers", "departement": "09"}, "geometry": {"type": "Point", "coordinates": [1.61922192974039, 43.1196476066384]}, "record_timestamp": "2022-04-11T07:02:22.624+02:00"},{"datasetid": "solidarite-alimentaire-en-occitanie", "recordid": "1d176867c7cc682cc99854d4612aae37a626ea32", "fields": {"pr_ciser_les_jours": "jeudi, vendredi", "mail_ref": "annie-b31@club-internet.fr", "code_postal": "31790", "horaires_de_distribution": "Jeudi 14h - 17h30 et vendredi de 9h \u00e0 12h", "ville": "Saint Sauveur", "departement": "31", "jours_distribution": "certains_jours", "geo_shape": {"coordinates": [1.4024130786756501, 43.7490232708363], "type": "Point"}, "tel_ref": "0562790466", "objectid": 448, "organisme_coordinateur": "SPF F\u00e9d\u00e9ration haute garonne", "association": "Secours populaire : Saint Sauveur", "adresse_du_lieu": "Rue de la Paix", "geo_point_2d": [43.7490232708363, 1.4024130786756501]}, "geometry": {"type": "Point", "coordinates": [1.4024130786756501, 43.7490232708363]}, "record_timestamp": "2022-04-11T07:02:22.624+02:00"},{"datasetid": "solidarite-alimentaire-en-occitanie", "recordid": "0b4f233f6fe2e42231bf4f4a1119d03c13451c33", "fields": {"pr_ciser_les_jours": "jeudi", "mail_ref": "frouzins@spf31.org", "code_postal": "31270", "horaires_de_distribution": "Jeudi 14h - 17h", "ville": "frouzins", "departement": "31", "jours_distribution": "certains_jours", "geo_shape": {"coordinates": [1.34326349980963, 43.5260160000149], "type": "Point"}, "tel_ref": "0562879785", "objectid": 445, "organisme_coordinateur": "SPF F\u00e9d\u00e9ration haute garonne", "association": "Secours populaire : Frouzins", "adresse_du_lieu": "place de l'h\u00f4tel de ville", "geo_point_2d": [43.5260160000149, 1.34326349980963]}, "geometry": {"type": "Point", "coordinates": [1.34326349980963, 43.5260160000149]}, "record_timestamp": "2022-04-11T07:02:22.624+02:00"},{"datasetid": "solidarite-alimentaire-en-occitanie", "recordid": "151d2c1d83f7b510c3a5c8bc25613d92912f9f64", "fields": {"pr_ciser_les_jours": "vendredi", "mail_ref": "contact@spf31.org", "code_postal": "31700", "horaires_de_distribution": "9h - 12h", "ville": "blagnac", "departement": "31", "jours_distribution": "certains_jours", "geo_shape": {"coordinates": [1.3813635698852, 43.6396553852387], "type": "Point"}, "tel_ref": "0534403440", "objectid": 443, "organisme_coordinateur": "SPF F\u00e9d\u00e9ration haute garonne", "association": "Secours populaire : Blagnac", "adresse_du_lieu": "2bis, rue du Mugues", "geo_point_2d": [43.6396553852387, 1.3813635698852]}, "geometry": {"type": "Point", "coordinates": [1.3813635698852, 43.6396553852387]}, "record_timestamp": "2022-04-11T07:02:22.624+02:00"},{"datasetid": "solidarite-alimentaire-en-occitanie", "recordid": "ead9fc4c7aa6eee81d4036f8f2d4fa04cc6a5acd", "fields": {"pr_ciser_les_jours": "mercredi, vendredi", "mail_ref": "spfportet@gmail.com", "code_postal": "31120", "horaires_de_distribution": "14h - 17h", "ville": "Portet/garonne", "departement": "31", "jours_distribution": "certains_jours", "geo_shape": {"coordinates": [1.4076375051966, 43.5410916989011], "type": "Point"}, "tel_ref": "pas de permanence t\u00e9l\u00e9phonique, uniquement par mail", "objectid": 439, "organisme_coordinateur": "SPF F\u00e9d\u00e9ration haute garonne", "association": "Secours populaire : Portet sur Garonne", "adresse_du_lieu": "1, all\u00e9e du grand ch\u00eane", "geo_point_2d": [43.5410916989011, 1.4076375051966]}, "geometry": {"type": "Point", "coordinates": [1.4076375051966, 43.5410916989011]}, "record_timestamp": "2022-04-11T07:02:22.624+02:00"},{"datasetid": "solidarite-alimentaire-en-occitanie", "recordid": "55325af8450979518ad101c589a2545c3b9af7b8", "fields": {"geo_shape": {"coordinates": [0.08309769146519001, 43.2239439300928], "type": "Point"}, "objectid": 406, "association": "\u00c9picerie sociale", "adresse_du_lieu": "2 rue Tristan Der\u00eame", "geo_point_2d": [43.2239439300928, 0.08309769146519001], "code_postal": "65000", "ville": "Tarbes", "departement": "65"}, "geometry": {"type": "Point", "coordinates": [0.08309769146519001, 43.2239439300928]}, "record_timestamp": "2022-04-11T07:02:22.624+02:00"},{"datasetid": "solidarite-alimentaire-en-occitanie", "recordid": "09287a55e7f9d2ebd080a9380f297b2ea9718af7", "fields": {"jours_distribution": "certains_jours", "geo_shape": {"coordinates": [1.2287571414966, 43.9572563573573], "type": "Point"}, "objectid": 401, "organisme_coordinateur": "SPF F\u00e9d\u00e9ration TARN et GARONNE", "association": "Secours populaire : Montech", "pr_ciser_les_jours": "Tous les jeudis", "adresse_du_lieu": "1, rue de la mairie", "geo_point_2d": [43.9572563573573, 1.2287571414966], "code_postal": "82600", "horaires_de_distribution": "Jeudi 9h - 12 h", "ville": "Montech", "departement": "82"}, "geometry": {"type": "Point", "coordinates": [1.2287571414966, 43.9572563573573]}, "record_timestamp": "2022-04-11T07:02:22.624+02:00"},{"datasetid": "solidarite-alimentaire-en-occitanie", "recordid": "7b2ebc1b0efe7329aca064799fa7a19a44bf2df7", "fields": {"pr_ciser_les_jours": "Jeudi uniquement sur RDV", "mail_ref": "contact@sfp81.org", "code_postal": "81800", "horaires_de_distribution": "14H-17H uniquement sur RDV", "ville": "Rabastens", "departement": "81", "jours_distribution": "certains_jours", "geo_shape": {"coordinates": [1.7239480717387101, 43.8228729636905], "type": "Point"}, "tel_ref": "0563408194", "objectid": 399, "organisme_coordinateur": "SPF F\u00e9d\u00e9ration TARN", "association": "Secours populaire : Rabastens", "adresse_du_lieu": "place saint michel", "geo_point_2d": [43.8228729636905, 1.7239480717387101]}, "geometry": {"type": "Point", "coordinates": [1.7239480717387101, 43.8228729636905]}, "record_timestamp": "2022-04-11T07:02:22.624+02:00"},{"datasetid": "solidarite-alimentaire-en-occitanie", "recordid": "0595e42e1d8ac9c8ba4ed6cc3f9a39d426a6f10e", "fields": {"pr_ciser_les_jours": "Lundi et mardi, uniquement sur RDV", "mail_ref": "contact@sfp81.org", "code_postal": "81300", "horaires_de_distribution": "Lundi et mardi 14H-17H30, uniquement sur RDV", "ville": "Graulhet", "departement": "81", "jours_distribution": "certains_jours", "geo_shape": {"coordinates": [1.9845307405354, 43.7634960248205], "type": "Point"}, "tel_ref": "0563348619", "objectid": 398, "organisme_coordinateur": "SPF F\u00e9d\u00e9ration TARN", "association": "Secours populaire : Graulhet", "adresse_du_lieu": "7, av Jules ferry", "geo_point_2d": [43.7634960248205, 1.9845307405354]}, "geometry": {"type": "Point", "coordinates": [1.9845307405354, 43.7634960248205]}, "record_timestamp": "2022-04-11T07:02:22.624+02:00"},{"datasetid": "solidarite-alimentaire-en-occitanie", "recordid": "783be0d851e0e645abfeecc052ccb4c4b020df71", "fields": {"pr_ciser_les_jours": "Mardi et jeudi, uniquement sur RDV", "mail_ref": "contact@spf81.org", "code_postal": "81600", "horaires_de_distribution": "Mardi 10H-12H, jeudi 14H-17H30, uniquement sur RDV", "ville": "Gaillac", "departement": "81", "jours_distribution": "certains_jours", "geo_shape": {"coordinates": [1.9030758000269499, 43.8933071734091], "type": "Point"}, "tel_ref": "0563575380", "objectid": 397, "organisme_coordinateur": "SPF F\u00e9d\u00e9ration TARN", "association": "Secours populaire : Gaillac", "adresse_du_lieu": "119, rue dom vayssettes", "geo_point_2d": [43.8933071734091, 1.9030758000269499]}, "geometry": {"type": "Point", "coordinates": [1.9030758000269499, 43.8933071734091]}, "record_timestamp": "2022-04-11T07:02:22.624+02:00"},{"datasetid": "solidarite-alimentaire-en-occitanie", "recordid": "d1587d0a62b5d346d4a757ff157d992e13106c27", "fields": {"pr_ciser_les_jours": "Lundi uniquement sur RDV", "mail_ref": "contact@spf81.org", "code_postal": "81500", "horaires_de_distribution": "Lundi 13H-17H uniquement sur RDV", "ville": "Lavaur", "departement": "81", "jours_distribution": "certains_jours", "geo_shape": {"coordinates": [1.8125991932060699, 43.7040684797364], "type": "Point"}, "tel_ref": "0563582426", "objectid": 395, "organisme_coordinateur": "SPF F\u00e9d\u00e9ration TARN", "association": "Secours populaire : Lavaur", "adresse_du_lieu": "2, rue du pastel", "geo_point_2d": [43.7040684797364, 1.8125991932060699]}, "geometry": {"type": "Point", "coordinates": [1.8125991932060699, 43.7040684797364]}, "record_timestamp": "2022-04-11T07:02:22.624+02:00"},{"datasetid": "solidarite-alimentaire-en-occitanie", "recordid": "bf5e7e178fbec67eed8ee7e99260fd638afd64fb", "fields": {"pr_ciser_les_jours": "Mercredi uniquement sur RDV", "mail_ref": "contact@spf81.org", "code_postal": "81400", "horaires_de_distribution": "Mercredi 14H-17H uniquement sur RDV", "ville": "Carmaux", "departement": "81", "jours_distribution": "certains_jours", "geo_shape": {"coordinates": [2.14931940484996, 44.0519622222406], "type": "Point"}, "tel_ref": "0563767585", "objectid": 393, "organisme_coordinateur": "SPF F\u00e9d\u00e9ration TARN", "association": "Secours populaire : Carmaux", "adresse_du_lieu": "1, rue camboulives", "geo_point_2d": [44.0519622222406, 2.14931940484996]}, "geometry": {"type": "Point", "coordinates": [2.14931940484996, 44.0519622222406]}, "record_timestamp": "2022-04-11T07:02:22.624+02:00"},{"datasetid": "solidarite-alimentaire-en-occitanie", "recordid": "9fcda75c95d4d4c9c93ba9e707cb2fdeeadb2d93", "fields": {"geo_shape": {"coordinates": [3.27249963329884, 44.7995945079762], "type": "Point"}, "tel_ref": "04 66 31 83 73", "objectid": 373, "organisme_coordinateur": "SPF F\u00e9d\u00e9ration LOZERE", "association": "Secours populaire : Saint Chely d'apcher", "adresse_du_lieu": "route des fournels", "geo_point_2d": [44.7995945079762, 3.27249963329884], "code_postal": "48200", "horaires_de_distribution": "Distribution sur contact t\u00e9l\u00e9phonique", "ville": "St Chely", "departement": "48"}, "geometry": {"type": "Point", "coordinates": [3.27249963329884, 44.7995945079762]}, "record_timestamp": "2022-04-11T07:02:22.624+02:00"},{"datasetid": "solidarite-alimentaire-en-occitanie", "recordid": "e0ea68881b3374f40e052e2ecb0a15497f516998", "fields": {"jours_distribution": "certains_jours", "geo_shape": {"coordinates": [0.30617262401328604, 43.7581473946994], "type": "Point"}, "tel_ref": "0800323130 num\u00e9ro vert de 8H30 \u00e0 18H30", "objectid": 366, "association": "EPISOL - VIC ACCUEIL", "pr_ciser_les_jours": "Mardi", "adresse_du_lieu": "13 RUE JEAN JAURES", "geo_point_2d": [43.7581473946994, 0.30617262401328604], "code_postal": "32190", "horaires_de_distribution": "9H30/11H30 et 14H/16H30", "ville": "VIC-FEZENSAC", "departement": "32"}, "geometry": {"type": "Point", "coordinates": [0.30617262401328604, 43.7581473946994]}, "record_timestamp": "2022-04-11T07:02:22.624+02:00"},{"datasetid": "solidarite-alimentaire-en-occitanie", "recordid": "f975303a8ecf8c09ecde85cf1f4410cb758a4ec8", "fields": {"geo_shape": {"coordinates": [3.70772151811657, 43.9333229334592], "type": "Point"}, "tel_ref": "09 67 34 02 08", "objectid": 361, "organisme_coordinateur": "SPF F\u00e9d\u00e9ration de l'HERAULT", "association": "Secours populaire : Ganges", "adresse_du_lieu": "17, rue des barrys", "geo_point_2d": [43.9333229334592, 3.70772151811657], "code_postal": "34190", "horaires_de_distribution": "Toutes les structures distribuent sur appel t\u00e9l\u00e9phonique", "ville": "ganges", "departement": "34"}, "geometry": {"type": "Point", "coordinates": [3.70772151811657, 43.9333229334592]}, "record_timestamp": "2022-04-11T07:02:22.624+02:00"},{"datasetid": "solidarite-alimentaire-en-occitanie", "recordid": "a2703e2a61540bb252825b91dec94a46f37aa4fe", "fields": {"geo_shape": {"coordinates": [3.71388002993796, 43.5552284221285], "type": "Point"}, "tel_ref": "09 65 19 92 80", "objectid": 359, "organisme_coordinateur": "SPF F\u00e9d\u00e9ration de l'HERAULT", "association": "Secours populaire : Cournon terral", "adresse_du_lieu": "rue du Dr Ombras", "geo_point_2d": [43.5552284221285, 3.71388002993796], "code_postal": "34660", "horaires_de_distribution": "Toutes les structures distribuent sur appel t\u00e9l\u00e9phonique", "ville": "Cournon", "departement": "34"}, "geometry": {"type": "Point", "coordinates": [3.71388002993796, 43.5552284221285]}, "record_timestamp": "2022-04-11T07:02:22.624+02:00"},{"datasetid": "solidarite-alimentaire-en-occitanie", "recordid": "7793e32628cbda566fea89c9fbe8ca2f655a23f9", "fields": {"jours_distribution": "certains_jours", "geo_shape": {"coordinates": [-0.037162655618717004, 43.0950711793222], "type": "Point"}, "objectid": 351, "association": "AU PANIER DU TYDOS", "pr_ciser_les_jours": ".", "adresse_du_lieu": "2 RUE DU TYDOS", "geo_point_2d": [43.0950711793222, -0.037162655618717004], "code_postal": "65100", "ville": "LOURDES", "departement": "65"}, "geometry": {"type": "Point", "coordinates": [-0.037162655618717004, 43.0950711793222]}, "record_timestamp": "2022-04-11T07:02:22.624+02:00"},{"datasetid": "solidarite-alimentaire-en-occitanie", "recordid": "a16f0e202ac909afb13e3b4fac2ae67f18b9700f", "fields": {"geo_shape": {"coordinates": [3.43546875012394, 43.6255515002088], "type": "Point"}, "tel_ref": "04 67 96 25 11", "objectid": 350, "organisme_coordinateur": "SPF F\u00e9d\u00e9ration de l'HERAULT", "association": "Secours populaire : Clermont l'H\u00e9rault", "adresse_du_lieu": "rue roger de salasc", "geo_point_2d": [43.6255515002088, 3.43546875012394], "code_postal": "34800", "horaires_de_distribution": "Toutes les structures distribuent sur appel t\u00e9l\u00e9phonique", "ville": "clermont", "departement": "34"}, "geometry": {"type": "Point", "coordinates": [3.43546875012394, 43.6255515002088]}, "record_timestamp": "2022-04-11T07:02:22.624+02:00"},{"datasetid": "solidarite-alimentaire-en-occitanie", "recordid": "c6af3c9ee62cc4ea97ad8d2da7a95b23dadcec18", "fields": {"mail_ref": "ul.toulouse@croix-rouge.fr", "code_postal": "31000", "horaires_de_distribution": "sur rendez-vous", "ville": "TOULOUSE", "departement": "31", "jours_distribution": "quotidien", "geo_shape": {"coordinates": [1.4479337926484699, 43.6101825332897], "type": "Point"}, "tel_ref": "0561992469", "objectid": 343, "organisme_coordinateur": "Croix-Rouge D\u00e9l\u00e9gation Territoriale de la Haute-Garonne", "association": "CROIX-ROUGE", "adresse_du_lieu": "20, rue Raymond IV", "geo_point_2d": [43.6101825332897, 1.4479337926484699]}, "geometry": {"type": "Point", "coordinates": [1.4479337926484699, 43.6101825332897]}, "record_timestamp": "2022-04-11T07:02:22.624+02:00"},{"datasetid": "solidarite-alimentaire-en-occitanie", "recordid": "c7b335908bf11cfe899077e9b3861981a5c30a3a", "fields": {"geo_shape": {"coordinates": [3.3240860891753, 43.7302090061389], "type": "Point"}, "tel_ref": "09 60 01 64 08", "objectid": 336, "organisme_coordinateur": "SPF F\u00e9d\u00e9ration de l'HERAULT", "association": "Secours populaire : lod\u00e8ve", "adresse_du_lieu": "9, av Denfert", "geo_point_2d": [43.7302090061389, 3.3240860891753], "code_postal": "34700", "horaires_de_distribution": "Toutes les structures distribuent sur appel t\u00e9l\u00e9phonique", "ville": "Lod\u00e8ve", "departement": "34"}, "geometry": {"type": "Point", "coordinates": [3.3240860891753, 43.7302090061389]}, "record_timestamp": "2022-04-11T07:02:22.624+02:00"},{"datasetid": "solidarite-alimentaire-en-occitanie", "recordid": "2a13711de73230b60f19d32547b9429e0aa0b162", "fields": {"geo_shape": {"coordinates": [4.62263737942908, 44.1589832028584], "type": "Point"}, "tel_ref": "04 66 89 19 77", "objectid": 468, "organisme_coordinateur": "SPF F\u00e9d\u00e9ration GARD", "association": "Secours populaire : Bagnols / c\u00e8ze", "adresse_du_lieu": "19, rue Garidel, al\u00e8gre", "geo_point_2d": [44.1589832028584, 4.62263737942908], "code_postal": "30200", "horaires_de_distribution": "distribution alimentaire sur appel t\u00e9l\u00e9phonique", "ville": "Bagnols", "departement": "30"}, "geometry": {"type": "Point", "coordinates": [4.62263737942908, 44.1589832028584]}, "record_timestamp": "2022-04-11T07:02:22.624+02:00"},{"datasetid": "solidarite-alimentaire-en-occitanie", "recordid": "23c97836afb80236f05eccc604049ea342d3bd85", "fields": {"geo_shape": {"coordinates": [4.64342178998929, 43.8106377987464], "type": "Point"}, "tel_ref": "04 66 58 54 95", "objectid": 469, "organisme_coordinateur": "SPF F\u00e9d\u00e9ration GARD", "association": "Secours populaire : Beaucaire", "adresse_du_lieu": "rue des anciens combattants AFN", "geo_point_2d": [43.8106377987464, 4.64342178998929], "code_postal": "30300", "horaires_de_distribution": "distribution alimentaire sur appel t\u00e9l\u00e9phonique", "ville": "Beaucaire", "departement": "30"}, "geometry": {"type": "Point", "coordinates": [4.64342178998929, 43.8106377987464]}, "record_timestamp": "2022-04-11T07:02:22.624+02:00"},{"datasetid": "solidarite-alimentaire-en-occitanie", "recordid": "4277632e55c5c779e64dfa149fe434d0b1dc383e", "fields": {"pr_ciser_les_jours": "Mercredi", "code_postal": "32000", "horaires_de_distribution": "14h 30 - 16h 30", "ville": "Auch", "departement": "32", "jours_distribution": "certains_jours", "geo_shape": {"coordinates": [0.583360239408521, 43.6411379649238], "type": "Point"}, "tel_ref": "0800323130 num\u00e9ro vert de 8H30 \u00e0 18H30", "objectid": 470, "organisme_coordinateur": "SPF F\u00e9d\u00e9ration GERS", "association": "Secours populaire : Auch", "adresse_du_lieu": "10, rue du repos", "geo_point_2d": [43.6411379649238, 0.583360239408521]}, "geometry": {"type": "Point", "coordinates": [0.583360239408521, 43.6411379649238]}, "record_timestamp": "2022-04-11T07:02:22.624+02:00"},{"datasetid": "solidarite-alimentaire-en-occitanie", "recordid": "a200a6c416ade930e9ab3ee8562289f401feead1", "fields": {"pr_ciser_les_jours": "Mardi", "code_postal": "32600", "horaires_de_distribution": "tous les 15 jours                              \nMardi 10H/12H et 14h - 17h\n(au local jeunesse, Cit\u00e9 de la Vierge)", "ville": "L'isle jourdain", "departement": "32", "jours_distribution": "certains_jours", "geo_shape": {"coordinates": [1.10955447711645, 43.6001849998706], "type": "Point"}, "tel_ref": "0800323130 num\u00e9ro vert de 8H30 \u00e0 18H30", "objectid": 473, "organisme_coordinateur": "SPF F\u00e9d\u00e9ration GERS", "association": "Secours populaire : L'Isle jourdain", "adresse_du_lieu": "place de compostelle", "geo_point_2d": [43.6001849998706, 1.10955447711645]}, "geometry": {"type": "Point", "coordinates": [1.10955447711645, 43.6001849998706]}, "record_timestamp": "2022-04-11T07:02:22.624+02:00"},{"datasetid": "solidarite-alimentaire-en-occitanie", "recordid": "682106943e4934260202034628fa5d80f77475a1", "fields": {"geo_shape": {"coordinates": [3.4225544438353, 43.4587692574134], "type": "Point"}, "objectid": 478, "organisme_coordinateur": "SPF F\u00e9d\u00e9ration de l'HERAULT", "association": "Secours populaire : Pezenas", "adresse_du_lieu": "33, rue anatole France", "geo_point_2d": [43.4587692574134, 3.4225544438353], "code_postal": "34120", "horaires_de_distribution": "Toutes les structures distribuent sur appel t\u00e9l\u00e9phonique", "ville": "Pezenas", "departement": "34"}, "geometry": {"type": "Point", "coordinates": [3.4225544438353, 43.4587692574134]}, "record_timestamp": "2022-04-11T07:02:22.624+02:00"},{"datasetid": "solidarite-alimentaire-en-occitanie", "recordid": "56f061b92f2e996ea2c49144d2f5b181385ea776", "fields": {"geo_shape": {"coordinates": [4.17892891339122, 43.6658742920756], "type": "Point"}, "tel_ref": "04 67 83 91 65", "objectid": 485, "organisme_coordinateur": "SPF F\u00e9d\u00e9ration de l'HERAULT", "association": "Secours populaire : Marsillargues", "adresse_du_lieu": "30, rue jean jaures", "geo_point_2d": [43.6658742920756, 4.17892891339122], "code_postal": "34190", "horaires_de_distribution": "Toutes les structures distribuent sur appel t\u00e9l\u00e9phonique", "ville": "Marsillargues", "departement": "34"}, "geometry": {"type": "Point", "coordinates": [4.17892891339122, 43.6658742920756]}, "record_timestamp": "2022-04-11T07:02:22.624+02:00"},{"datasetid": "solidarite-alimentaire-en-occitanie", "recordid": "eb6e39503a4ef1f9270d1606aa46429f9846450b", "fields": {"mail_ref": "ad09.president@restosducoeur,org", "code_postal": "09200", "horaires_de_distribution": "14 h \u00e0 17 h", "ville": "ST GIRONS", "infos": "tous les vendredis", "departement": "09", "geo_shape": {"coordinates": [1.13954515239002, 42.9885469592245], "type": "Point"}, "tel_ref": "0561681970", "objectid": 719, "organisme_coordinateur": "RESTOS DU C\u0152UR", "association": "Restos du c\u0153ur SAINT GIRONS", "adresse_du_lieu": "20 av. A. Berges", "geo_point_2d": [42.9885469592245, 1.13954515239002]}, "geometry": {"type": "Point", "coordinates": [1.13954515239002, 42.9885469592245]}, "record_timestamp": "2022-04-11T07:02:22.624+02:00"},{"datasetid": "solidarite-alimentaire-en-occitanie", "recordid": "ed236a1b0e15cdbd19225246dd4a5f39678b55bc", "fields": {"pr_ciser_les_jours": "CHAQUE DEUX SEMAINES", "mail_ref": "chantal.aribaud@restosducoeur.org", "code_postal": "11150", "horaires_de_distribution": "9 H \u00e0 12 H", "ville": "BRAM", "departement": "11", "jours_distribution": "certains_jours", "geo_shape": {"coordinates": [2.12044117088491, 43.2423213525721], "type": "Point"}, "tel_ref": "0468259919", "objectid": 722, "organisme_coordinateur": "RESTOS DU C\u0152UR", "association": "Restos du c\u0153ur BRAM", "adresse_du_lieu": "54 Bis Avenue Ernest L\u00e9otard", "geo_point_2d": [43.2423213525721, 2.12044117088491]}, "geometry": {"type": "Point", "coordinates": [2.12044117088491, 43.2423213525721]}, "record_timestamp": "2022-04-11T07:02:22.624+02:00"},{"datasetid": "solidarite-alimentaire-en-occitanie", "recordid": "0c1fe64a479d5992a1274289b61645b21f29ba77", "fields": {"pr_ciser_les_jours": "Jeudi chaque deux semaines", "mail_ref": "jeanmarieherrera@orange.fr", "code_postal": "11360", "horaires_de_distribution": "De 14h \u00e0 17h", "ville": "DURBAN CORBIERES", "departement": "11", "jours_distribution": "certains_jours", "geo_shape": {"coordinates": [2.82428549986681, 42.9990255000983], "type": "Point"}, "tel_ref": "0468259919", "objectid": 728, "organisme_coordinateur": "RESTOS DU C\u0152UR", "association": "Restos du c\u0153ur DURBAN CORBIERES", "adresse_du_lieu": "Avenue de Narbonne", "geo_point_2d": [42.9990255000983, 2.82428549986681]}, "geometry": {"type": "Point", "coordinates": [2.82428549986681, 42.9990255000983]}, "record_timestamp": "2022-04-11T07:02:22.624+02:00"},{"datasetid": "solidarite-alimentaire-en-occitanie", "recordid": "07c2db53fae26930be4ae49799929359a1a95afc", "fields": {"pr_ciser_les_jours": "Mercredi chaque 2 semaines", "mail_ref": "carole.rosellini@restosducoeur.org", "code_postal": "11260", "horaires_de_distribution": "13 h 30 \u00e0 16 h", "ville": "ESPERAZA", "departement": "11", "jours_distribution": "certains_jours", "geo_shape": {"coordinates": [2.22331177978181, 42.934576480193996], "type": "Point"}, "tel_ref": "0468259919", "objectid": 729, "organisme_coordinateur": "RESTOS DU C\u0152UR", "association": "Restos du c\u0153ur ESPERAZA", "adresse_du_lieu": "Rue Elie Sermet", "geo_point_2d": [42.934576480193996, 2.22331177978181]}, "geometry": {"type": "Point", "coordinates": [2.22331177978181, 42.934576480193996]}, "record_timestamp": "2022-04-11T07:02:22.624+02:00"},{"datasetid": "solidarite-alimentaire-en-occitanie", "recordid": "893fb3974c7950dc0ff6c8fd8d03873fe0a97e2d", "fields": {"pr_ciser_les_jours": "Mercredi et Jeudi chaque semaine", "mail_ref": "martine.errie@restosducoeur.org", "code_postal": "11100", "horaires_de_distribution": "9 H \u00e0 12 H", "ville": "NARBONNE", "departement": "11", "jours_distribution": "certains_jours", "geo_shape": {"coordinates": [2.99648460321699, 43.1828649274134], "type": "Point"}, "tel_ref": "0468259919", "objectid": 733, "organisme_coordinateur": "RESTOS DU C\u0152UR", "association": "Restos du c\u0153ur NARBONNE", "adresse_du_lieu": "2 Rue R\u00e9aumur", "geo_point_2d": [43.1828649274134, 2.99648460321699]}, "geometry": {"type": "Point", "coordinates": [2.99648460321699, 43.1828649274134]}, "record_timestamp": "2022-04-11T07:02:22.624+02:00"},{"datasetid": "solidarite-alimentaire-en-occitanie", "recordid": "f4ff77f2f4df4425da7420576faac95b0022fcbf", "fields": {"pr_ciser_les_jours": "Jeudi chaque 2 semaines", "mail_ref": "bernadette.olard@restosducoeur.org", "code_postal": "11500", "horaires_de_distribution": "9 H \u00e0 12 H", "ville": "QUILLAN", "departement": "11", "jours_distribution": "certains_jours", "geo_shape": {"coordinates": [2.17697499488243, 42.8764612627896], "type": "Point"}, "tel_ref": "0468259919", "objectid": 736, "organisme_coordinateur": "RESTOS DU C\u0152UR", "association": "Restos du c\u0153ur QUILLAN", "adresse_du_lieu": "6 All\u00e9e Georges Pompidou", "geo_point_2d": [42.8764612627896, 2.17697499488243]}, "geometry": {"type": "Point", "coordinates": [2.17697499488243, 42.8764612627896]}, "record_timestamp": "2022-04-11T07:02:22.624+02:00"},{"datasetid": "solidarite-alimentaire-en-occitanie", "recordid": "40252939a54b7e4bbeb7d2b606d6c864708bcd7c", "fields": {"mail_ref": "ad65.arreau@restosducoeur.org", "code_postal": "65240", "horaires_de_distribution": "Jeudi matin de 10H \u00e0 12H30", "ville": "ARREAU", "infos": "Tous les jeudi matin de 10H \u00e0 12H - face pharmacie au 1er \u00e9tage", "departement": "65", "geo_shape": {"coordinates": [0.35882407038832803, 42.9051731283411], "type": "Point"}, "tel_ref": "0665159034", "objectid": 749, "organisme_coordinateur": "RESTOS DU C\u0152UR", "association": "Restos du C\u0153ur Arreau", "adresse_du_lieu": "17 grande rue, Maison Mouli\u00e9", "geo_point_2d": [42.9051731283411, 0.35882407038832803]}, "geometry": {"type": "Point", "coordinates": [0.35882407038832803, 42.9051731283411]}, "record_timestamp": "2022-04-11T07:02:22.624+02:00"},{"datasetid": "solidarite-alimentaire-en-occitanie", "recordid": "c91c7d487c1cf482818b234206d6c53b2076a167", "fields": {"mail_ref": "ad31.bessieres@restosducoeur.org", "code_postal": "31660", "horaires_de_distribution": "Mardi 13h30-16h", "ville": "Bessi\u00e8res", "infos": "Ouverture semaine paire", "departement": "31", "geo_shape": {"coordinates": [1.6040024997203002, 43.8005610000641], "type": "Point"}, "tel_ref": "0534401212", "objectid": 750, "organisme_coordinateur": "RESTOS DU C\u0152UR", "association": "Restos du c\u0153ur Bessi\u00e8res", "adresse_du_lieu": "192 rue du Grand Pastelli\u00e9", "geo_point_2d": [43.8005610000641, 1.6040024997203002]}, "geometry": {"type": "Point", "coordinates": [1.6040024997203002, 43.8005610000641]}, "record_timestamp": "2022-04-11T07:02:22.624+02:00"},{"datasetid": "solidarite-alimentaire-en-occitanie", "recordid": "d6c979fd8bc3ff228af573772e5b6212cbbcfade", "fields": {"mail_ref": "ad31.carbonne@restosducoeur.org", "code_postal": "31390", "horaires_de_distribution": "Mardi 13h15-16h", "ville": "Carbonne", "infos": "Ouverture semaine paire", "departement": "31", "geo_shape": {"coordinates": [1.22100227670295, 43.2970265044833], "type": "Point"}, "tel_ref": "0534401212", "objectid": 752, "organisme_coordinateur": "RESTOS DU C\u0152UR", "association": "Restos du c\u0153ur Carbonne", "adresse_du_lieu": "56 rue Lucien Cassagne", "geo_point_2d": [43.2970265044833, 1.22100227670295]}, "geometry": {"type": "Point", "coordinates": [1.22100227670295, 43.2970265044833]}, "record_timestamp": "2022-04-11T07:02:22.624+02:00"},{"datasetid": "solidarite-alimentaire-en-occitanie", "recordid": "0f36b70228d90de9197903132ee723aa0ef1f9ab", "fields": {"mail_ref": "ad31.lisleendodon@restosducoeur.org", "code_postal": "31230", "horaires_de_distribution": "Mardi 13h30-16h30", "ville": "L'Isle en Dodon", "infos": "Ouverture semaine paire", "departement": "31", "geo_shape": {"coordinates": [0.8374510926673531, 43.3788958228322], "type": "Point"}, "tel_ref": "0534401212", "objectid": 760, "organisme_coordinateur": "RESTOS DU C\u0152UR", "association": "Restos du c\u0153ur L'Isle en Dodon", "adresse_du_lieu": "Avenue des Martiagues", "geo_point_2d": [43.3788958228322, 0.8374510926673531]}, "geometry": {"type": "Point", "coordinates": [0.8374510926673531, 43.3788958228322]}, "record_timestamp": "2022-04-11T07:02:22.624+02:00"},{"datasetid": "solidarite-alimentaire-en-occitanie", "recordid": "7a285fca73aa43ad387141ce4e92c0b41f748318", "fields": {"mail_ref": "ad31.montrejeau@restosducoeur.org", "code_postal": "31210", "horaires_de_distribution": "Jeudi 10h-12h", "ville": "Montr\u00e9jeau", "infos": "Ouverture semaine paire", "departement": "31", "geo_shape": {"coordinates": [0.5633259266021361, 43.0845260386181], "type": "Point"}, "tel_ref": "0534401212", "objectid": 761, "organisme_coordinateur": "RESTOS DU C\u0152UR", "association": "Restos du c\u0153ur Montr\u00e9jeau", "adresse_du_lieu": "2 rue Jeanne d'Arc", "geo_point_2d": [43.0845260386181, 0.5633259266021361]}, "geometry": {"type": "Point", "coordinates": [0.5633259266021361, 43.0845260386181]}, "record_timestamp": "2022-04-11T07:02:22.624+02:00"},{"datasetid": "solidarite-alimentaire-en-occitanie", "recordid": "86a925aee259ac23a629f847902c4bf56043a2e8", "fields": {"mail_ref": "ad65.semeac@restosducoeur.org", "code_postal": "65600", "horaires_de_distribution": "Jeudi 10H \u00e0 12H et 13H30 \u00e0 16H30", "ville": "SEMEAC", "infos": "Tous les jeudi", "departement": "65", "geo_shape": {"coordinates": [0.108108995237416, 43.2285774607336], "type": "Point"}, "tel_ref": "0665159034", "objectid": 769, "organisme_coordinateur": "RESTOS DU C\u0152UR", "association": "Restos du C\u0153ur Semeac", "adresse_du_lieu": "58 av. de la R\u00e9publique", "geo_point_2d": [43.2285774607336, 0.108108995237416]}, "geometry": {"type": "Point", "coordinates": [0.108108995237416, 43.2285774607336]}, "record_timestamp": "2022-04-11T07:02:22.624+02:00"},{"datasetid": "solidarite-alimentaire-en-occitanie", "recordid": "9217041f0b2f5c915a6808c0dbd63cbcda7d4c2c", "fields": {"mail_ref": "ad66.prades@restosducoeur.org", "code_postal": "66500", "horaires_de_distribution": "9h \u00e0 12h 14h \u00e0 16h30", "ville": "PRADES", "infos": "Jeudi", "departement": "66", "geo_shape": {"coordinates": [2.42934457454724, 42.6182409006222], "type": "Point"}, "tel_ref": "0972975031", "objectid": 788, "organisme_coordinateur": "RESTOS DU C\u0152UR", "association": "Restos du C\u0153ur PRADES", "adresse_du_lieu": "Bd de la Gare", "geo_point_2d": [42.6182409006222, 2.42934457454724]}, "geometry": {"type": "Point", "coordinates": [2.42934457454724, 42.6182409006222]}, "record_timestamp": "2022-04-11T07:02:22.624+02:00"},{"datasetid": "solidarite-alimentaire-en-occitanie", "recordid": "193dfd473ba14e302ac0828f5185f08db6421721", "fields": {"mail_ref": "rdc82.beaumont@restosducoeur.org", "code_postal": "82500", "horaires_de_distribution": "mardi 14h 00", "ville": "BEAUMONT DE LOMAGNE", "infos": "Tous les mardi \u00e0 14 H", "departement": "82", "geo_shape": {"coordinates": [0.9848988215693931, 43.8847110377663], "type": "Point"}, "tel_ref": "0563630883", "objectid": 793, "organisme_coordinateur": "RESTOS DU C\u0152UR", "association": "Restos du C\u0153ur BEAUMONT DE LOMAGNE", "adresse_du_lieu": "92 Boulevard Ouest", "geo_point_2d": [43.8847110377663, 0.9848988215693931]}, "geometry": {"type": "Point", "coordinates": [0.9848988215693931, 43.8847110377663]}, "record_timestamp": "2022-04-11T07:02:22.624+02:00"},{"datasetid": "solidarite-alimentaire-en-occitanie", "recordid": "9c8d73358ede3cc05ea6af1aca201b59aa7bde5f", "fields": {"mail_ref": "rdc82.castel@restosducoeur.org", "code_postal": "82100", "horaires_de_distribution": "lundi 14h 00", "ville": "CASTELSARRASIN", "infos": "Tous les 15 jours le lundi  Ferm\u00e9 juillet et Aout", "departement": "82", "geo_shape": {"coordinates": [1.1421906064601, 44.0351888084569], "type": "Point"}, "tel_ref": "0563630883", "objectid": 794, "organisme_coordinateur": "RESTOS DU C\u0152UR", "association": "Restos du C\u0153ur CASTELSARRASIN", "adresse_du_lieu": "46 rue du Corps F. Pommi\u00e8s", "geo_point_2d": [44.0351888084569, 1.1421906064601]}, "geometry": {"type": "Point", "coordinates": [1.1421906064601, 44.0351888084569]}, "record_timestamp": "2022-04-11T07:02:22.624+02:00"},{"datasetid": "solidarite-alimentaire-en-occitanie", "recordid": "a206bb2593b52fc5e56d9b4f5121c37b768c330f", "fields": {"mail_ref": "rdc82.caussade@restosducoeur.org", "code_postal": "82300", "horaires_de_distribution": "jeudi 13h 30", "ville": "CAUSSADE", "infos": "Le jeudi tous les 15 jours \u00e0 14 H", "departement": "82", "geo_shape": {"coordinates": [1.53133766320013, 44.153380624188], "type": "Point"}, "tel_ref": "0563630883", "objectid": 795, "organisme_coordinateur": "RESTOS DU C\u0152UR", "association": "Restos du C\u0153ur CAUSSADE", "adresse_du_lieu": "26 avenue des Tourondes", "geo_point_2d": [44.153380624188, 1.53133766320013]}, "geometry": {"type": "Point", "coordinates": [1.53133766320013, 44.153380624188]}, "record_timestamp": "2022-04-11T07:02:22.624+02:00"},{"datasetid": "solidarite-alimentaire-en-occitanie", "recordid": "7e216afe4ec9035b138e8d2791113155f8b83858", "fields": {"mail_ref": "rdc82.lauzerte@restosducoeur.org", "code_postal": "82110", "horaires_de_distribution": "jeudi 10h 00", "ville": "LAUZERTE", "infos": "Tous les jeudi  sauf juillet et a\u00f4ut", "departement": "82", "geo_shape": {"coordinates": [1.13616824150656, 44.2559024193868], "type": "Point"}, "tel_ref": "0563630883", "objectid": 800, "organisme_coordinateur": "RESTOS DU C\u0152UR", "association": "Restos du C\u0153ur LAUZERTE", "adresse_du_lieu": "Promenade de l'Eveill\u00e9", "geo_point_2d": [44.2559024193868, 1.13616824150656]}, "geometry": {"type": "Point", "coordinates": [1.13616824150656, 44.2559024193868]}, "record_timestamp": "2022-04-11T07:02:22.624+02:00"},{"datasetid": "solidarite-alimentaire-en-occitanie", "recordid": "c6f81f3477638275c85c7e3a3f763b5927d32ffd", "fields": {"mail_ref": "rdc82.lacomete@restosducoeur.org", "code_postal": "82000", "horaires_de_distribution": "Mardi & jeudi  9H 00", "ville": "MONTAUBAN", "infos": "Tous les mardi et jeudi", "departement": "82", "geo_shape": {"coordinates": [1.38463838094842, 44.009668456095], "type": "Point"}, "tel_ref": "0563630883", "objectid": 803, "organisme_coordinateur": "RESTOS DU C\u0152UR", "association": "Restos du C\u0153ur MONTAUBAN-LA COMETE", "adresse_du_lieu": "580 rue F. Mauriac  - Centre Social", "geo_point_2d": [44.009668456095, 1.38463838094842]}, "geometry": {"type": "Point", "coordinates": [1.38463838094842, 44.009668456095]}, "record_timestamp": "2022-04-11T07:02:22.624+02:00"},{"datasetid": "solidarite-alimentaire-en-occitanie", "recordid": "e20616e32b925e6412c87ebbc62ffb874828f28b", "fields": {"mail_ref": "rdc82.montech@restosducoeur.org", "code_postal": "82700", "horaires_de_distribution": "lundi- 14h 00", "ville": "MONTECH", "infos": "Le lundi tous les 15 jours", "departement": "82", "geo_shape": {"coordinates": [1.23077504598395, 43.9559311010192], "type": "Point"}, "tel_ref": "0563630883", "objectid": 806, "organisme_coordinateur": "RESTOS DU C\u0152UR", "association": "Restos du C\u0153ur MONTECH", "adresse_du_lieu": "1 bis faubourg Lafeuillade", "geo_point_2d": [43.9559311010192, 1.23077504598395]}, "geometry": {"type": "Point", "coordinates": [1.23077504598395, 43.9559311010192]}, "record_timestamp": "2022-04-11T07:02:22.624+02:00"},{"datasetid": "solidarite-alimentaire-en-occitanie", "recordid": "e870de251366dd87644ab26bc261533ec3ae16dc", "fields": {"geo_shape": {"coordinates": [1.23939970994133, 43.850253727762], "type": "Point"}, "tel_ref": "0563630883", "objectid": 811, "organisme_coordinateur": "RESTOS DU C\u0152UR", "association": "Restos du C\u0153ur VERDUN SUR GARONNE", "adresse_du_lieu": "Place ste Catherine - Espace Saint Panthaleon", "geo_point_2d": [43.850253727762, 1.23939970994133], "mail_ref": "rdc82.verdun@restosducoeur.org", "code_postal": "82600", "ville": "VERDUN SUR GARONNE", "infos": "et du 27/08 au 19/11", "departement": "82"}, "geometry": {"type": "Point", "coordinates": [1.23939970994133, 43.850253727762]}, "record_timestamp": "2022-04-11T07:02:22.624+02:00"},{"datasetid": "solidarite-alimentaire-en-occitanie", "recordid": "e37f304d4c0cec50254d91b692eb0f7e89dc6c1d", "fields": {"geo_shape": {"coordinates": [3.29090005613048, 44.5550186259213], "type": "Point"}, "tel_ref": "0466651717", "objectid": 814, "organisme_coordinateur": "RESTOS DU C\u0152UR", "association": "Restos du C\u0153ur MARVEJOLS", "adresse_du_lieu": "7 Place du Soubeyran, Ancien Tribunal", "geo_point_2d": [44.5550186259213, 3.29090005613048], "mail_ref": "ad48.siege@restosducoeur.org", "code_postal": "48100", "horaires_de_distribution": "Lundi et Jeudi 15h30 \u2013 18h00", "ville": "Marvejols", "departement": "48"}, "geometry": {"type": "Point", "coordinates": [3.29090005613048, 44.5550186259213]}, "record_timestamp": "2022-04-11T07:02:22.624+02:00"},{"datasetid": "solidarite-alimentaire-en-occitanie", "recordid": "c0898cd632198faf71d4b121cb638fe62f3d5ea3", "fields": {"mail_ref": "ad31.revel@restosducoeur.org", "code_postal": "31250", "horaires_de_distribution": "Mardi 14h-16h30", "ville": "Revel", "infos": "Ouverture semaine paire", "departement": "31", "geo_shape": {"coordinates": [2.0014374024918, 43.4538189912191], "type": "Point"}, "tel_ref": "0534401212", "objectid": 819, "organisme_coordinateur": "RESTOS DU C\u0152UR", "association": "Restos du c\u0153ur Revel", "adresse_du_lieu": "60 avenue Notre Dame", "geo_point_2d": [43.4538189912191, 2.0014374024918]}, "geometry": {"type": "Point", "coordinates": [2.0014374024918, 43.4538189912191]}, "record_timestamp": "2022-04-11T07:02:22.624+02:00"},{"datasetid": "solidarite-alimentaire-en-occitanie", "recordid": "56471588b34e793b7a6e6b0c8e6f3450bf55b716", "fields": {"mail_ref": "ad31.saintgaudens@restosducoeur.org", "code_postal": "31800", "horaires_de_distribution": "Mardi 14h-16h/Vendredi 13h30-16h", "ville": "Saint Gaudens", "infos": "Ouverture semaine paire", "departement": "31", "geo_shape": {"coordinates": [1.21501057125006, 43.2971851642147], "type": "Point"}, "tel_ref": "0534401212", "objectid": 821, "organisme_coordinateur": "RESTOS DU C\u0152UR", "association": "Restos du c\u0153ur Saint Gaudens", "adresse_du_lieu": "8 rue Lamartine", "geo_point_2d": [43.2971851642147, 1.21501057125006]}, "geometry": {"type": "Point", "coordinates": [1.21501057125006, 43.2971851642147]}, "record_timestamp": "2022-04-11T07:02:22.624+02:00"},{"datasetid": "solidarite-alimentaire-en-occitanie", "recordid": "9f32c7bf2c1058f975735b3f0e8541e03cb03597", "fields": {"mail_ref": "ad31.lesarenes@restosducoeur.org", "code_postal": "31100", "horaires_de_distribution": "Jeudi 8h30-12h30 et 13h30-18h", "ville": "Toulouse", "infos": "Ouverture semaine paire", "departement": "31", "geo_shape": {"coordinates": [1.41115153761998, 43.5928054709371], "type": "Point"}, "tel_ref": "0534401212", "objectid": 825, "organisme_coordinateur": "RESTOS DU C\u0152UR", "association": "Restos du c\u0153ur Toulouse Les Ar\u00e8nes", "adresse_du_lieu": "63 rue de N\u00e9gogousses", "geo_point_2d": [43.5928054709371, 1.41115153761998]}, "geometry": {"type": "Point", "coordinates": [1.41115153761998, 43.5928054709371]}, "record_timestamp": "2022-04-11T07:02:22.624+02:00"},{"datasetid": "solidarite-alimentaire-en-occitanie", "recordid": "981de2e6f23fadf2728a167153da262bd1ee72bc", "fields": {"mail_ref": "ad31.montaudran@restosducoeur.org", "code_postal": "31400", "horaires_de_distribution": "Lundi 9h30-12h et 13h30-15h30", "ville": "Toulouse", "infos": "Ouverture semaine paire", "departement": "31", "geo_shape": {"coordinates": [1.51091306384384, 43.5659802434516], "type": "Point"}, "tel_ref": "0534401212", "objectid": 827, "organisme_coordinateur": "RESTOS DU C\u0152UR", "association": "Restos du c\u0153ur Toulouse Montaudran", "adresse_du_lieu": "286 route de Revel", "geo_point_2d": [43.5659802434516, 1.51091306384384]}, "geometry": {"type": "Point", "coordinates": [1.51091306384384, 43.5659802434516]}, "record_timestamp": "2022-04-11T07:02:22.624+02:00"},{"datasetid": "solidarite-alimentaire-en-occitanie", "recordid": "4b391f565abd25606d81b9ba35bff918d786b5f5", "fields": {"mail_ref": "ad31.villefranche@restosducoeur.org", "code_postal": "31290", "horaires_de_distribution": "Jeudi 13h-15h30", "ville": "Villefranche de Lauragais", "infos": "Ouverture semaine paire", "departement": "31", "geo_shape": {"coordinates": [1.71433904197782, 43.4009378554427], "type": "Point"}, "tel_ref": "0534401212", "objectid": 829, "organisme_coordinateur": "RESTOS DU C\u0152UR", "association": "Restos du C\u0153ur Villefranche de Lauragais", "adresse_du_lieu": "132 bis rue de la R\u00e9publique", "geo_point_2d": [43.4009378554427, 1.71433904197782]}, "geometry": {"type": "Point", "coordinates": [1.71433904197782, 43.4009378554427]}, "record_timestamp": "2022-04-11T07:02:22.624+02:00"},{"datasetid": "solidarite-alimentaire-en-occitanie", "recordid": "f04021713bd8d5612e1dde831c2ab439f2ffcdb8", "fields": {"geo_shape": {"coordinates": [3.78141872820563, 43.5547373210412], "type": "Point"}, "tel_ref": "0467405237", "objectid": 837, "organisme_coordinateur": "RESTOS DU C\u0152UR", "association": "Restos du C\u0153ur FABREGUES - 014", "adresse_du_lieu": "Centre culturel Jos\u00e9 Janson, Rue Jean-Marc Rouan", "geo_point_2d": [43.5547373210412, 3.78141872820563], "mail_ref": "ad34.fabregues@restosducoeur.org", "code_postal": "34690", "horaires_de_distribution": "Mardis 9 h \u00e0 11 h 30", "ville": "FABREGUES", "departement": "34"}, "geometry": {"type": "Point", "coordinates": [3.78141872820563, 43.5547373210412]}, "record_timestamp": "2022-04-11T07:02:22.624+02:00"},{"datasetid": "solidarite-alimentaire-en-occitanie", "recordid": "899b985f715969659386eca87ebeb86656dcb29a", "fields": {"geo_shape": {"coordinates": [3.7582818212574702, 43.4432445398127], "type": "Point"}, "tel_ref": "0467405237", "objectid": 838, "organisme_coordinateur": "RESTOS DU C\u0152UR", "association": "Restos du C\u0153ur FRONTIGNAN - 015", "adresse_du_lieu": "7 rue de la Raffinerie", "geo_point_2d": [43.4432445398127, 3.7582818212574702], "mail_ref": "ad34.frontignan@restosducoeur.org", "code_postal": "34110", "horaires_de_distribution": "Jeudis 9 h - 11 h", "ville": "FRONTIGNAN", "departement": "34"}, "geometry": {"type": "Point", "coordinates": [3.7582818212574702, 43.4432445398127]}, "record_timestamp": "2022-04-11T07:02:22.624+02:00"},{"datasetid": "solidarite-alimentaire-en-occitanie", "recordid": "16b661edcf62a6d087d5b6310478cd19a96c055d", "fields": {"geo_shape": {"coordinates": [3.41685182522397, 43.4548009494642], "type": "Point"}, "tel_ref": "0467405237", "objectid": 847, "organisme_coordinateur": "RESTOS DU C\u0152UR", "association": "Restos du C\u0153ur PEZENAS - 024", "adresse_du_lieu": "Cit\u00e9 Castelsec - Esc 6", "geo_point_2d": [43.4548009494642, 3.41685182522397], "mail_ref": "ad34.pezenas@restosducoeur.org", "code_postal": "34120", "horaires_de_distribution": "Jeudi : 14h \u00e0 16 h 30  + Vendredi 14 h 16 h 30", "ville": "PEZENAS", "departement": "34"}, "geometry": {"type": "Point", "coordinates": [3.41685182522397, 43.4548009494642]}, "record_timestamp": "2022-04-11T07:02:22.624+02:00"},{"datasetid": "solidarite-alimentaire-en-occitanie", "recordid": "ce3979162646c6abaca7da05f17724ed336097e7", "fields": {"geo_shape": {"coordinates": [3.41685182522397, 43.4548009494642], "type": "Point"}, "tel_ref": "0467405237", "objectid": 856, "organisme_coordinateur": "RESTOS DU C\u0152UR", "association": "Restos du C\u0153ur BB PEZENAS - 019", "adresse_du_lieu": "Cit\u00e9 Castelsec - Esc 1", "geo_point_2d": [43.4548009494642, 3.41685182522397], "mail_ref": "ad34.pezenasbb@restosducoeur.org", "code_postal": "34120", "horaires_de_distribution": "Mardi : 14h \u00e0 16h", "ville": "PEZENAS", "departement": "34"}, "geometry": {"type": "Point", "coordinates": [3.41685182522397, 43.4548009494642]}, "record_timestamp": "2022-04-11T07:02:22.624+02:00"},{"datasetid": "solidarite-alimentaire-en-occitanie", "recordid": "fb01c3db1e03ddddc8cafafebc20d3aa56fd51de", "fields": {"geo_shape": {"coordinates": [3.8365973115447, 43.616594598264], "type": "Point"}, "tel_ref": "0467405237", "objectid": 858, "organisme_coordinateur": "RESTOS DU C\u0152UR", "association": "Restos du C\u0153ur ACONITS (Pergola - C\u00e9vennes - Petit Bard) - 007", "adresse_du_lieu": "4 rue des Aconits", "geo_point_2d": [43.616594598264, 3.8365973115447], "mail_ref": "ad34.aconits@restosducoeur.org", "code_postal": "34080", "horaires_de_distribution": "Mardi-jeudi 9 h -12 h +13 h 30-16h Etudiants\u00a0: mardi 18h \u2013 20h", "ville": "ACONITS", "departement": "34"}, "geometry": {"type": "Point", "coordinates": [3.8365973115447, 43.616594598264]}, "record_timestamp": "2022-04-11T07:02:22.624+02:00"},{"datasetid": "solidarite-alimentaire-en-occitanie", "recordid": "d6f1a5d27170fcbd7922d23d72fb8410a7aebf45", "fields": {"geo_shape": {"coordinates": [3.89892438158929, 43.6183533177038], "type": "Point"}, "tel_ref": "0467405237", "objectid": 862, "organisme_coordinateur": "RESTOS DU C\u0152UR", "association": "Restos du C\u0153ur DURAND (La Pompignane) - 004", "adresse_du_lieu": "1 rue Marie Durand", "geo_point_2d": [43.6183533177038, 3.89892438158929], "mail_ref": "ad34.mariedurand@restosducoeur.org", "code_postal": "34000", "horaires_de_distribution": "Jeudi : de 9h \u00e0 12h et 13h \u00e0 16h", "ville": "MONTPELLIER", "departement": "34"}, "geometry": {"type": "Point", "coordinates": [3.89892438158929, 43.6183533177038]}, "record_timestamp": "2022-04-11T07:02:22.624+02:00"},{"datasetid": "solidarite-alimentaire-en-occitanie", "recordid": "15f74732a68a66b2627bd1300e138f98e98216ce", "fields": {"pr_ciser_les_jours": "Vendredi", "mail_ref": "ad32.marciac@restosducoeur.org", "code_postal": "32230", "horaires_de_distribution": "9H-11H30", "ville": "MARCIAC", "infos": "une fois par mois en p\u00e9riode de confinement", "departement": "32", "jours_distribution": "certains_jours", "geo_shape": {"coordinates": [0.158449999854528, 43.5295599998229], "type": "Point"}, "tel_ref": "0800323130 num\u00e9ro vert de 8H30 \u00e0 18H30", "objectid": 873, "organisme_coordinateur": "RESTOS DU C\u0152UR", "association": "Restos du C\u0153ur Marciac", "adresse_du_lieu": "Site du Lac", "geo_point_2d": [43.5295599998229, 0.158449999854528]}, "geometry": {"type": "Point", "coordinates": [0.158449999854528, 43.5295599998229]}, "record_timestamp": "2022-04-11T07:02:22.624+02:00"},{"datasetid": "solidarite-alimentaire-en-occitanie", "recordid": "04567983a5ac32ed241654de10df6b3332616dea", "fields": {"mail_ref": "ad46.castelnaumontratier@restosducoeur.org", "code_postal": "46170", "horaires_de_distribution": "Lundi de 14h00 \u00e0 17h00", "ville": "CASTELNAU-MONTRATIER", "infos": "tous les 15 jours", "departement": "46", "geo_shape": {"coordinates": [1.3522282542555, 44.2682010417229], "type": "Point"}, "tel_ref": "0565352220", "objectid": 879, "organisme_coordinateur": "RESTOS DU C\u0152UR", "association": "Restos du C\u0153ur Castelnau-Montratier", "adresse_du_lieu": "14, rue Joffre", "geo_point_2d": [44.2682010417229, 1.3522282542555]}, "geometry": {"type": "Point", "coordinates": [1.3522282542555, 44.2682010417229]}, "record_timestamp": "2022-04-11T07:02:22.624+02:00"},{"datasetid": "solidarite-alimentaire-en-occitanie", "recordid": "bd92439c142ecc526832abb5f92d7b5d1aeebc53", "fields": {"mail_ref": "ad46.martel@restosducoeur.org", "code_postal": "46600", "horaires_de_distribution": "Mardi de 9h30 \u00e0 12h00", "ville": "MARTEL", "infos": "tous les 15 jours", "departement": "46", "geo_shape": {"coordinates": [1.6128940378772398, 44.9378765248917], "type": "Point"}, "tel_ref": "0565352220", "objectid": 890, "organisme_coordinateur": "RESTOS DU C\u0152UR", "association": "Restos du C\u0153ur Martel", "adresse_du_lieu": "Angle du Chemin de la Serre et de la rue Fran\u00e7ois Grandou", "geo_point_2d": [44.9378765248917, 1.6128940378772398]}, "geometry": {"type": "Point", "coordinates": [1.6128940378772398, 44.9378765248917]}, "record_timestamp": "2022-04-11T07:02:22.624+02:00"},{"datasetid": "solidarite-alimentaire-en-occitanie", "recordid": "5a69a2da5d652d0d312f5700df5a65fd81debe02", "fields": {"mail_ref": "ad46.puyleveque@restosducoeur.org", "code_postal": "46700", "horaires_de_distribution": "Jeudi de 14h00 \u00e0 16h00", "ville": "PUY L'EVEQUE", "infos": "toutes les semaines", "departement": "46", "geo_shape": {"coordinates": [1.1388069797716, 44.5068001638277], "type": "Point"}, "tel_ref": "0565352220", "objectid": 893, "organisme_coordinateur": "RESTOS DU C\u0152UR", "association": "Restos du C\u0153ur Puy-l'Ev\u00eaque", "adresse_du_lieu": "Rue du Commandant Presset", "geo_point_2d": [44.5068001638277, 1.1388069797716]}, "geometry": {"type": "Point", "coordinates": [1.1388069797716, 44.5068001638277]}, "record_timestamp": "2022-04-11T07:02:22.624+02:00"},{"datasetid": "solidarite-alimentaire-en-occitanie", "recordid": "42531e76aaedb69d588baddeb0eb9c6a16463f18", "fields": {"mail_ref": "ad46.stcere@restosducoeur.org", "code_postal": "46400", "horaires_de_distribution": "Vendredi de 14h30 \u00e0 16h00", "ville": "ST CERE", "infos": "tous les 15 jours", "departement": "46", "geo_shape": {"coordinates": [1.88729500829424, 44.8611318130513], "type": "Point"}, "tel_ref": "0565352220", "objectid": 894, "organisme_coordinateur": "RESTOS DU C\u0152UR", "association": "Restos du C\u0153ur Saint-C\u00e9r\u00e9", "adresse_du_lieu": "25, quai du Puits Larribe", "geo_point_2d": [44.8611318130513, 1.88729500829424]}, "geometry": {"type": "Point", "coordinates": [1.88729500829424, 44.8611318130513]}, "record_timestamp": "2022-04-11T07:02:22.624+02:00"},{"datasetid": "solidarite-alimentaire-en-occitanie", "recordid": "6595a8cab3bf7f80cad768a56d1d6ed8120f69f0", "fields": {"mail_ref": "ad46.souillac@restosducoeur.org", "code_postal": "46200", "horaires_de_distribution": "Jeudi de 9h30 \u00e0 12h30", "ville": "SOUILLAC", "infos": "tous les 15 jours", "departement": "46", "geo_shape": {"coordinates": [1.47784174566076, 44.8937053024113], "type": "Point"}, "tel_ref": "0565352220", "objectid": 895, "organisme_coordinateur": "RESTOS DU C\u0152UR", "association": "Restos du C\u0153ur Souillac", "adresse_du_lieu": "Place Betz Maison des Associations Salle A de l'Abbaye", "geo_point_2d": [44.8937053024113, 1.47784174566076]}, "geometry": {"type": "Point", "coordinates": [1.47784174566076, 44.8937053024113]}, "record_timestamp": "2022-04-11T07:02:22.624+02:00"},{"datasetid": "solidarite-alimentaire-en-occitanie", "recordid": "b780f530efc2924fd953b3b9ed5ff9cc6260846a", "fields": {"pr_ciser_les_jours": "Samedi", "mail_ref": "ad81.salvagnac@restosducoeur.org", "code_postal": "81630", "horaires_de_distribution": "samedi 10H-12H", "ville": "SALVAGNAC", "departement": "81", "jours_distribution": "certains_jours", "geo_shape": {"coordinates": [1.6890462744675299, 43.9057008091636], "type": "Point"}, "tel_ref": "0563602626", "objectid": 908, "organisme_coordinateur": "RESTOS DU C\u0152UR", "association": "Restos du C\u0153ur SALVAGNAC", "adresse_du_lieu": "571 chemin de la Rosi\u00e8re", "geo_point_2d": [43.9057008091636, 1.6890462744675299]}, "geometry": {"type": "Point", "coordinates": [1.6890462744675299, 43.9057008091636]}, "record_timestamp": "2022-04-11T07:02:22.624+02:00"},{"datasetid": "solidarite-alimentaire-en-occitanie", "recordid": "e6260c4f758739c8a5f82039cdcea4b82245f1df", "fields": {"geo_shape": {"coordinates": [1.36427013380821, 43.9168130993813], "type": "Point"}, "tel_ref": "0563630883", "objectid": 916, "organisme_coordinateur": "RESTOS DU C\u0152UR", "association": "Restos du C\u0153ur Labastide Saint Pierre", "adresse_du_lieu": "195 rue de l'Egalit\u00e9", "geo_point_2d": [43.9168130993813, 1.36427013380821], "mail_ref": "rdc82.labastide@restosducoeur.org", "code_postal": "82370", "horaires_de_distribution": "Hiver : mercredi 10H, \u00e9t\u00e9 : tous les mercredi matin", "ville": "LABASTIDE SAINT PIERRE", "departement": "82"}, "geometry": {"type": "Point", "coordinates": [1.36427013380821, 43.9168130993813]}, "record_timestamp": "2022-04-11T07:02:22.624+02:00"},{"datasetid": "solidarite-alimentaire-en-occitanie", "recordid": "c19a4b35f5a69001b052a28d745b1e51bddedd96", "fields": {"geo_shape": {"coordinates": [1.23988950018033, 44.1280729432553], "type": "Point"}, "tel_ref": "0563630883", "objectid": 917, "organisme_coordinateur": "RESTOS DU C\u0152UR", "association": "Restos du C\u0153ur Lafran\u00e7aise", "adresse_du_lieu": "CCAS rue L\u00e9on Cladel", "geo_point_2d": [44.1280729432553, 1.23988950018033], "mail_ref": "rdc82.lafrancaise@restosducoeur.org", "code_postal": "82130", "horaires_de_distribution": "Hiver : vendredi 10H, \u00e9t\u00e9 : tous les vendredi", "ville": "LAFRANCAISE", "departement": "82"}, "geometry": {"type": "Point", "coordinates": [1.23988950018033, 44.1280729432553]}, "record_timestamp": "2022-04-11T07:02:22.624+02:00"},{"datasetid": "solidarite-alimentaire-en-occitanie", "recordid": "b3a3bea58f005c2e6fd0db5c88b3634f85ce5470", "fields": {"geo_shape": {"coordinates": [1.13616824150656, 44.2559024193868], "type": "Point"}, "tel_ref": "0563630883", "objectid": 918, "organisme_coordinateur": "RESTOS DU C\u0152UR", "association": "Restos du C\u0153ur Lauzerte", "adresse_du_lieu": "Promenade de l'Eveill\u00e9", "geo_point_2d": [44.2559024193868, 1.13616824150656], "mail_ref": "rdc82.lauzerte@restosducoeur.org", "code_postal": "82110", "horaires_de_distribution": "Hiver : jeudi 10H, \u00e9t\u00e9 : tous les jeudi", "ville": "LAUZERTE", "departement": "82"}, "geometry": {"type": "Point", "coordinates": [1.13616824150656, 44.2559024193868]}, "record_timestamp": "2022-04-11T07:02:22.624+02:00"},{"datasetid": "solidarite-alimentaire-en-occitanie", "recordid": "aa626549c336f9a4de8450c9f3142ae415b81490", "fields": {"geo_shape": {"coordinates": [1.23094084983256, 43.9554342000355], "type": "Point"}, "tel_ref": "0563630883", "objectid": 921, "organisme_coordinateur": "RESTOS DU C\u0152UR", "association": "Restos du C\u0153ur Montech", "adresse_du_lieu": "1 bis rue Faubourg Lafeuillade", "geo_point_2d": [43.9554342000355, 1.23094084983256], "mail_ref": "rdc82.montech@restosducoeur.org", "code_postal": "82700", "horaires_de_distribution": "Hiver : lundi 14H, \u00e9t\u00e9 : le lundi tous les 15 jours", "ville": "MONTECH", "departement": "82"}, "geometry": {"type": "Point", "coordinates": [1.23094084983256, 43.9554342000355]}, "record_timestamp": "2022-04-11T07:02:22.624+02:00"},{"datasetid": "solidarite-alimentaire-en-occitanie", "recordid": "8692f4f2f1fa9c915785f77f40e2b645c44bb12b", "fields": {"geo_shape": {"coordinates": [1.23772160488832, 43.8501045858448], "type": "Point"}, "tel_ref": "0563630883", "objectid": 926, "organisme_coordinateur": "RESTOS DU C\u0152UR", "association": "Restos du C\u0153ur Verdun sur Garonne", "adresse_du_lieu": "2 Place Sainte-Catherine", "geo_point_2d": [43.8501045858448, 1.23772160488832], "mail_ref": "rdc82.verdun@restosducoeur.org", "code_postal": "82600", "horaires_de_distribution": "Ferm\u00e9 actuellement", "ville": "VERDUN SUR GARONNE", "departement": "82"}, "geometry": {"type": "Point", "coordinates": [1.23772160488832, 43.8501045858448]}, "record_timestamp": "2022-04-11T07:02:22.624+02:00"},{"datasetid": "solidarite-alimentaire-en-occitanie", "recordid": "2884644c89548215ffb1d441f8d3d5412231a681", "fields": {"jours_distribution": "certains_jours", "geo_shape": {"coordinates": [3.8821814995772, 43.6150484525513], "type": "Point"}, "tel_ref": "0659729832", "objectid": 931, "organisme_coordinateur": "Conseil d\u00e9partemental Saint Vincent de Paul", "association": "Epicerie Sociale SSVP", "pr_ciser_les_jours": "?", "adresse_du_lieu": "45 quai du verdanson", "geo_point_2d": [43.6150484525513, 3.8821814995772], "code_postal": "34000", "ville": "Montpellier", "departement": "34"}, "geometry": {"type": "Point", "coordinates": [3.8821814995772, 43.6150484525513]}, "record_timestamp": "2022-04-11T07:02:22.624+02:00"},{"datasetid": "solidarite-alimentaire-en-occitanie", "recordid": "c8b37f40e26a18de876ddb476a86be1fd2536ea5", "fields": {"geo_shape": {"coordinates": [3.8308845123263, 43.6169355089406], "type": "Point"}, "objectid": 935, "organisme_coordinateur": "Conf\u00e9rence Saint Vincent de Paul Sainte Croix", "association": "Maison paroissiale", "pr_ciser_les_jours": "Le jeudi", "adresse_du_lieu": "2968, avenue des moulins", "geo_point_2d": [43.6169355089406, 3.8308845123263], "code_postal": "34070", "horaires_de_distribution": "9 h -11 h 30", "ville": "Montpellier", "departement": "34"}, "geometry": {"type": "Point", "coordinates": [3.8308845123263, 43.6169355089406]}, "record_timestamp": "2022-04-11T07:02:22.624+02:00"},{"datasetid": "solidarite-alimentaire-en-occitanie", "recordid": "43e8fff16d81d5103eafddfc96d2cd7de11b7baa", "fields": {"geo_shape": {"coordinates": [3.3240860891753, 43.7302090061389], "type": "Point"}, "objectid": 965, "organisme_coordinateur": "SPF F\u00e9d\u00e9ration de l'HERAULT", "association": "Lod\u00e8ve", "pr_ciser_les_jours": "tout les 15 jours", "adresse_du_lieu": "9, av Denfert", "geo_point_2d": [43.7302090061389, 3.3240860891753], "code_postal": "34700", "ville": "Lod\u00e8ve", "departement": "34"}, "geometry": {"type": "Point", "coordinates": [3.3240860891753, 43.7302090061389]}, "record_timestamp": "2022-04-11T07:02:22.624+02:00"},{"datasetid": "solidarite-alimentaire-en-occitanie", "recordid": "c47280b2f9a20d712411ac830f6cd30181c5dfe9", "fields": {"geo_shape": {"coordinates": [3.4225544438353, 43.4587692574134], "type": "Point"}, "objectid": 957, "organisme_coordinateur": "SPF F\u00e9d\u00e9ration de l'HERAULT", "association": "Pezenas", "pr_ciser_les_jours": "tout les 15 jours", "adresse_du_lieu": "33, rue anatole France", "geo_point_2d": [43.4587692574134, 3.4225544438353], "code_postal": "34120", "ville": "Pezenas", "departement": "34"}, "geometry": {"type": "Point", "coordinates": [3.4225544438353, 43.4587692574134]}, "record_timestamp": "2022-04-11T07:02:22.624+02:00"},{"datasetid": "solidarite-alimentaire-en-occitanie", "recordid": "d27092a6994610d4b0cd159507ea1e6aac84147f", "fields": {"geo_shape": {"coordinates": [4.3674716335423405, 43.8211415949437], "type": "Point"}, "objectid": 953, "organisme_coordinateur": "Crous de Montpellier/antenne de N\u00eemes", "association": "R\u00e9sidences G.Besse et Palmes", "pr_ciser_les_jours": "1 fois par quinzaine 12h30 14h00", "adresse_du_lieu": "100 rue G.Besse", "geo_point_2d": [43.8211415949437, 4.3674716335423405], "code_postal": "30000", "ville": "N\u00eemes", "departement": "30"}, "geometry": {"type": "Point", "coordinates": [4.3674716335423405, 43.8211415949437]}, "record_timestamp": "2022-04-11T07:02:22.624+02:00"},{"datasetid": "solidarite-alimentaire-en-occitanie", "recordid": "63927a67f9477926769955f39db11dab847b72ed", "fields": {"geo_shape": {"coordinates": [3.02927500024439, 42.8159024790208], "type": "Point"}, "objectid": 1032, "organisme_coordinateur": "Croix-Rouge fran\u00e7aise", "association": "Equipe Locale de Le Barcar\u00e8s", "pr_ciser_les_jours": "3\u00e8me jeudi du mois", "adresse_du_lieu": "Maison des Associations", "geo_point_2d": [42.8159024790208, 3.02927500024439], "code_postal": "66420", "horaires_de_distribution": "15/17h", "ville": "LE BARCARES", "departement": "66"}, "geometry": {"type": "Point", "coordinates": [3.02927500024439, 42.8159024790208]}, "record_timestamp": "2022-04-11T07:02:22.624+02:00"},{"datasetid": "solidarite-alimentaire-en-occitanie", "recordid": "c224b70bb84a375f3789005c73bcab7c1d86812d", "fields": {"geo_shape": {"coordinates": [2.25280863946562, 44.5593365207065], "type": "Point"}, "objectid": 1018, "organisme_coordinateur": "SPF F\u00e9d\u00e9ration aveyron", "association": "Secours populaire : Decazeville", "adresse_du_lieu": "12, av cabrol", "geo_point_2d": [44.5593365207065, 2.25280863946562], "code_postal": "12300", "horaires_de_distribution": "Lundi de 14h - 17h", "ville": "decazeville", "departement": "12"}, "geometry": {"type": "Point", "coordinates": [2.25280863946562, 44.5593365207065]}, "record_timestamp": "2022-04-11T07:02:22.624+02:00"},{"datasetid": "solidarite-alimentaire-en-occitanie", "recordid": "d8d43135389b3400a463c43c5b672689e0043778", "fields": {"geo_shape": {"coordinates": [1.57493843037407, 43.2325931071628], "type": "Point"}, "objectid": 1012, "organisme_coordinateur": "SPF F\u00e9d\u00e9ration Ari\u00e8ge", "association": "Secours populaire : saverdun", "adresse_du_lieu": "3, rue du barry", "geo_point_2d": [43.2325931071628, 1.57493843037407], "code_postal": "09700", "horaires_de_distribution": "tous les 15 jours                            Jeudi 10h - 17h", "ville": "Saverdun", "departement": "09"}, "geometry": {"type": "Point", "coordinates": [1.57493843037407, 43.2325931071628]}, "record_timestamp": "2022-04-11T07:02:22.624+02:00"},{"datasetid": "solidarite-alimentaire-en-occitanie", "recordid": "25f18a65b4ea03e3cfd607f1193ec592e953ee46", "fields": {"geo_shape": {"coordinates": [1.85022492945543, 42.9336614601209], "type": "Point"}, "objectid": 1010, "organisme_coordinateur": "SPF F\u00e9d\u00e9ration Ari\u00e8ge", "association": "Secours populaire : Lavelanet", "adresse_du_lieu": "2, rue Fr\u00e9deric souli\u00e9", "geo_point_2d": [42.9336614601209, 1.85022492945543], "code_postal": "09300", "horaires_de_distribution": "tous les 15 jours                            mardi 10h - 17h", "ville": "lavelanet", "departement": "09"}, "geometry": {"type": "Point", "coordinates": [1.85022492945543, 42.9336614601209]}, "record_timestamp": "2022-04-11T07:02:22.624+02:00"},{"datasetid": "solidarite-alimentaire-en-occitanie", "recordid": "66c66027b4f1d8150c4bbeccf4118bae8d2a6e12", "fields": {"geo_shape": {"coordinates": [3.8426144815409797, 43.5987082661248], "type": "Point"}, "objectid": 981, "organisme_coordinateur": "SPF F\u00e9d\u00e9ration de l'HERAULT", "association": "Paul Val\u00e9ry (Montpellier)", "pr_ciser_les_jours": "tout les 15 jours", "adresse_du_lieu": "111, rue camille Desmoulins", "geo_point_2d": [43.5987082661248, 3.8426144815409797], "code_postal": "34000", "ville": "Montpellier", "departement": "34"}, "geometry": {"type": "Point", "coordinates": [3.8426144815409797, 43.5987082661248]}, "record_timestamp": "2022-04-11T07:02:22.624+02:00"},{"datasetid": "solidarite-alimentaire-en-occitanie", "recordid": "3a46054692eb46197b030d80aef65eee0aaa1335", "fields": {"geo_shape": {"coordinates": [3.84063805945684, 43.6483307143284], "type": "Point"}, "objectid": 978, "organisme_coordinateur": "SPF F\u00e9d\u00e9ration de l'HERAULT", "association": "FAC Montpellier", "pr_ciser_les_jours": "tout les 15 jours", "adresse_du_lieu": "Route de ganges", "geo_point_2d": [43.6483307143284, 3.84063805945684], "code_postal": "34000", "ville": "Montpellier", "departement": "34"}, "geometry": {"type": "Point", "coordinates": [3.84063805945684, 43.6483307143284]}, "record_timestamp": "2022-04-11T07:02:22.624+02:00"},{"datasetid": "solidarite-alimentaire-en-occitanie", "recordid": "4448bbfefd68afb5ce8ffbd05d9d734aac20064a", "fields": {"geo_shape": {"coordinates": [3.1236830497702, 43.3576207875528], "type": "Point"}, "objectid": 975, "organisme_coordinateur": "SPF F\u00e9d\u00e9ration de l'HERAULT", "association": "Cazouls les Beziers", "pr_ciser_les_jours": "tout les 15 jours", "adresse_du_lieu": "Av Pasteur", "geo_point_2d": [43.3576207875528, 3.1236830497702], "code_postal": "34370", "ville": "Cazoul les B\u00e9ziers", "departement": "34"}, "geometry": {"type": "Point", "coordinates": [3.1236830497702, 43.3576207875528]}, "record_timestamp": "2022-04-11T07:02:22.624+02:00"},{"datasetid": "solidarite-alimentaire-en-occitanie", "recordid": "6158a199d86dcdef69e9d4b20e87656088cb49de", "fields": {"geo_shape": {"coordinates": [2.75159784344351, 42.4865390501424], "type": "Point"}, "objectid": 1033, "organisme_coordinateur": "Croix-Rouge fran\u00e7aise", "association": "Equipe Locale de C\u00e9ret", "pr_ciser_les_jours": "lundi", "adresse_du_lieu": "1, rue Jules Ferry \u00e9cole maternelle", "geo_point_2d": [42.4865390501424, 2.75159784344351], "code_postal": "66400", "horaires_de_distribution": "13h30/16h30", "ville": "CERET", "departement": "66"}, "geometry": {"type": "Point", "coordinates": [2.75159784344351, 42.4865390501424]}, "record_timestamp": "2022-04-11T07:02:22.624+02:00"},{"datasetid": "solidarite-alimentaire-en-occitanie", "recordid": "0b6306656a8f69a3b69e92d7f32b32ffcc19aeac", "fields": {"pr_ciser_les_jours": "Sur RDV", "mail_ref": "contact@spf66.org", "code_postal": "66000", "horaires_de_distribution": "13/17h Sur RDV", "ville": "Perpignan", "infos": "actuellement acc\u00e8s par la rue Charles Gide\nContacter par mail contact@spf66.org afin de convenir d'un rdv pour la r\u00e9cup\u00e9ration des colis alimentaires", "departement": "66", "jours_distribution": "certains_jours", "geo_shape": {"coordinates": [2.89137835168258, 42.7047437565352], "type": "Point"}, "objectid": 1040, "organisme_coordinateur": "Secours populaire", "association": "Espace Solidarit\u00e9 Perpignan", "adresse_du_lieu": "16 avenue de l\u2019ancien Champ de Mars", "geo_point_2d": [42.7047437565352, 2.89137835168258]}, "geometry": {"type": "Point", "coordinates": [2.89137835168258, 42.7047437565352]}, "record_timestamp": "2022-04-11T07:02:22.624+02:00"},{"datasetid": "solidarite-alimentaire-en-occitanie", "recordid": "a760007fa7bb4c16fe7c3f8d0e3bcb155f4ff4e4", "fields": {"geo_shape": {"coordinates": [1.11861997492648, 44.0482360517696], "type": "Point"}, "objectid": 1066, "organisme_coordinateur": "SECOURS POPULAIRE", "association": "SECOURS POPULAIRE", "pr_ciser_les_jours": "jeudi 1", "adresse_du_lieu": "route de Lafran\u00e7aise", "geo_point_2d": [44.0482360517696, 1.11861997492648], "code_postal": "82100", "horaires_de_distribution": "14/17h30", "ville": "Castelsarrasin", "departement": "82"}, "geometry": {"type": "Point", "coordinates": [1.11861997492648, 44.0482360517696]}, "record_timestamp": "2022-04-11T07:02:22.624+02:00"},{"datasetid": "solidarite-alimentaire-en-occitanie", "recordid": "0cff3bbebcb99ff9cd42be1086e85d8f37884e72", "fields": {"geo_shape": {"coordinates": [1.10617549920953, 44.0347306790039], "type": "Point"}, "tel_ref": "05 63 32 59 76", "objectid": 1071, "organisme_coordinateur": "CROIX ROUGE", "association": "CROIX ROUGE", "pr_ciser_les_jours": "Tous les Vendredis apr\u00e8s-midi", "adresse_du_lieu": "3 Avenue du Mar\u00e9chal Koening", "geo_point_2d": [44.0347306790039, 1.10617549920953], "code_postal": "82200", "horaires_de_distribution": "14/17h", "ville": "Castelsarrasin", "departement": "82"}, "geometry": {"type": "Point", "coordinates": [1.10617549920953, 44.0347306790039]}, "record_timestamp": "2022-04-11T07:02:22.624+02:00"},{"datasetid": "solidarite-alimentaire-en-occitanie", "recordid": "73d53511911fdef1efb27ff2704e2e0e80b88c2d", "fields": {"geo_shape": {"coordinates": [2.25280863946562, 44.5593365207065], "type": "Point"}, "objectid": 1116, "organisme_coordinateur": "Secours Populaire", "association": "Comit\u00e9 Decazeville", "pr_ciser_les_jours": "passage d'une distribution tous les 15j \u00e0 une distribution toutes les semaines \u00e0 partir du mercredi 29 /04/2020", "adresse_du_lieu": "12, Avenue Cabrol", "geo_point_2d": [44.5593365207065, 2.25280863946562], "code_postal": "12300", "ville": "DECAZEVILLE", "departement": "12"}, "geometry": {"type": "Point", "coordinates": [2.25280863946562, 44.5593365207065]}, "record_timestamp": "2022-04-11T07:02:22.624+02:00"},{"datasetid": "solidarite-alimentaire-en-occitanie", "recordid": "b81352c2571244d93ead1e641f69526c6c711a9f", "fields": {"geo_shape": {"coordinates": [2.04019501779578, 44.3510499922279], "type": "Point"}, "objectid": 1118, "organisme_coordinateur": "Secours Populaire", "association": "Comit\u00e9 Villefranche de Rouergue", "pr_ciser_les_jours": "distribution deux fois par semaines le jeudi matin et le samedi matin.", "adresse_du_lieu": "46 rue Alibert", "geo_point_2d": [44.3510499922279, 2.04019501779578], "code_postal": "12200", "ville": "Villefranche de Rouergue", "departement": "12"}, "geometry": {"type": "Point", "coordinates": [2.04019501779578, 44.3510499922279]}, "record_timestamp": "2022-04-11T07:02:22.624+02:00"},{"datasetid": "solidarite-alimentaire-en-occitanie", "recordid": "50c97710617907192f840f48699d06bd289bb194", "fields": {"geo_shape": {"coordinates": [2.97097290010228, 44.4650176612373], "type": "Point"}, "objectid": 1119, "organisme_coordinateur": "Secours Catholique", "association": "Centre de ST GENIEZ", "pr_ciser_les_jours": "JEUDI", "adresse_du_lieu": "Rue Rogery", "geo_point_2d": [44.4650176612373, 2.97097290010228], "code_postal": "12130", "horaires_de_distribution": "14/17h", "ville": "SAINT GENIEZ D\u2019OLT", "departement": "12"}, "geometry": {"type": "Point", "coordinates": [2.97097290010228, 44.4650176612373]}, "record_timestamp": "2022-04-11T07:02:22.624+02:00"},{"datasetid": "solidarite-alimentaire-en-occitanie", "recordid": "756ad12cc1cd83cc9bee20c6e88dd520719903e5", "fields": {"geo_shape": {"coordinates": [2.88823500007806, 43.9563869997099], "type": "Point"}, "objectid": 1120, "organisme_coordinateur": "Soci\u00e9t\u00e9 Saint-Vincent-de-Paul", "association": "Soci\u00e9t\u00e9 Saint Vincent de Paul - St Affrique", "pr_ciser_les_jours": "le mardi et le jeudi toute la journ\u00e9e avec repas solidaires en continue.", "adresse_du_lieu": "10, rue Chevreul", "geo_point_2d": [43.9563869997099, 2.88823500007806], "code_postal": "12400", "horaires_de_distribution": "9/17h", "ville": "SAINT-AFFRIQUE", "departement": "12"}, "geometry": {"type": "Point", "coordinates": [2.88823500007806, 43.9563869997099]}, "record_timestamp": "2022-04-11T07:02:22.624+02:00"},{"datasetid": "solidarite-alimentaire-en-occitanie", "recordid": "a493c58eb79a138f84718edc1a5be8044084909a", "fields": {"geo_shape": {"coordinates": [2.57670213954421, 44.3517833393891], "type": "Point"}, "objectid": 1121, "organisme_coordinateur": "Soci\u00e9t\u00e9 Saint-Vincent-de-Paul", "association": "Soci\u00e9t\u00e9 Saint Vincent de Paul - Rodez", "pr_ciser_les_jours": "mardi et jeudi apr\u00e8s-midi", "adresse_du_lieu": "13B rue de l'Embergue", "geo_point_2d": [44.3517833393891, 2.57670213954421], "code_postal": "12000", "horaires_de_distribution": "14/17h", "ville": "RODEZ", "departement": "12"}, "geometry": {"type": "Point", "coordinates": [2.57670213954421, 44.3517833393891]}, "record_timestamp": "2022-04-11T07:02:22.624+02:00"},{"datasetid": "solidarite-alimentaire-en-occitanie", "recordid": "71d8b721d3471b6b5875e2694d15779d28a4dc4d", "fields": {"geo_shape": {"coordinates": [4.32757327460852, 43.8285506855108], "type": "Point"}, "objectid": 1128, "organisme_coordinateur": "HUMANIMES", "association": "HUMANIMES (VALDEGOUR)", "pr_ciser_les_jours": "Samedi", "adresse_du_lieu": "9 Place Thal\u00e8s", "geo_point_2d": [43.8285506855108, 4.32757327460852], "code_postal": "30900", "ville": "N\u00eemes", "departement": "30"}, "geometry": {"type": "Point", "coordinates": [4.32757327460852, 43.8285506855108]}, "record_timestamp": "2022-04-11T07:02:22.624+02:00"},{"datasetid": "solidarite-alimentaire-en-occitanie", "recordid": "42c3a0dfb630dc85998689204fb2977bdae95974", "fields": {"geo_shape": {"coordinates": [4.36257262981788, 43.8394672666184], "type": "Point"}, "objectid": 1129, "organisme_coordinateur": "EPICERIE-SOLIDAIRE-DE-L'ESPERANCE", "association": "EPICERIE-SOLIDAIRE-DE-L'ESPERANCE", "pr_ciser_les_jours": "LUNDI AU VENDREDI DE 10h \u00e0 12h30 / 16h \u00e0 19h - Samedi 9h \u00e0 12h / Jours f\u00e9ri\u00e9s 9h \u00e0 12h", "adresse_du_lieu": "2 RUE NATIONALE", "geo_point_2d": [43.8394672666184, 4.36257262981788], "code_postal": "30000", "ville": "N\u00eemes", "departement": "30"}, "geometry": {"type": "Point", "coordinates": [4.36257262981788, 43.8394672666184]}, "record_timestamp": "2022-04-11T07:02:22.624+02:00"},{"datasetid": "solidarite-alimentaire-en-occitanie", "recordid": "61bec67b100c9a4cd3924517365e2f6012a1e131", "fields": {"pr_ciser_les_jours": "Jeudi", "mail_ref": "episol-ales@orange.fr", "code_postal": "30100", "horaires_de_distribution": "8h30/11h30", "ville": "Al\u00e8s", "departement": "30", "jours_distribution": "certains_jours", "geo_shape": {"coordinates": [4.07657854492647, 44.1217936725391], "type": "Point"}, "tel_ref": "0466554129 Appeler mercredi ou jeudi", "objectid": 1135, "organisme_coordinateur": "Episol'Al\u00e8s", "association": "EPICERIE SOLIDAIRE EPISOL'ALES", "adresse_du_lieu": "53b Grand rue Jean Moulin", "geo_point_2d": [44.1217936725391, 4.07657854492647]}, "geometry": {"type": "Point", "coordinates": [4.07657854492647, 44.1217936725391]}, "record_timestamp": "2022-04-11T07:02:22.624+02:00"},{"datasetid": "solidarite-alimentaire-en-occitanie", "recordid": "3855750825ab31f98a07fc185418b36e437d84cd", "fields": {"geo_shape": {"coordinates": [2.94796609076683, 42.6803800000739], "type": "Point"}, "objectid": 1168, "organisme_coordinateur": "SECOURS POPULAIRE", "association": "Comit\u00e9 de Cabestany / portage immeubles T. Rebull", "pr_ciser_les_jours": "mardi tous les 15 jours (dates\u00a0: 28 avril, 12 mai, \u2026)", "geo_point_2d": [42.6803800000739, 2.94796609076683], "code_postal": "66330", "ville": "Cabestany", "departement": "66"}, "geometry": {"type": "Point", "coordinates": [2.94796609076683, 42.6803800000739]}, "record_timestamp": "2022-04-11T07:02:22.624+02:00"},{"datasetid": "solidarite-alimentaire-en-occitanie", "recordid": "7191708e35f3ceba0085770d2b469aa443a3858e", "fields": {"pr_ciser_les_jours": "lundi et mercredi 14h-17h, actuellement tous les 15 jours", "mail_ref": "contact@spf66.org", "code_postal": "66200", "horaires_de_distribution": "14/17H sur RDV", "ville": "Elne", "infos": "Contacter par mail contact@spf66.org afin de convenir d'un rdv pour la r\u00e9cup\u00e9ration des colis alimentaires", "departement": "66", "jours_distribution": "certains_jours", "geo_shape": {"coordinates": [2.97477398378479, 42.6025631428425], "type": "Point"}, "objectid": 1170, "organisme_coordinateur": "SECOURS POPULAIRE", "association": "Comit\u00e9 d\u2019Elne", "adresse_du_lieu": "-", "geo_point_2d": [42.6025631428425, 2.97477398378479]}, "geometry": {"type": "Point", "coordinates": [2.97477398378479, 42.6025631428425]}, "record_timestamp": "2022-04-11T07:02:22.624+02:00"},{"datasetid": "solidarite-alimentaire-en-occitanie", "recordid": "4f194ce98ad6835e568fc6314fa469103726413c", "fields": {"geo_shape": {"coordinates": [3.01921445117057, 42.5451558412409], "type": "Point"}, "objectid": 1178, "organisme_coordinateur": "CROIX ROUGE", "association": "Equipe Locale d'Argel\u00e8s sur Mer", "pr_ciser_les_jours": "JEUDI", "adresse_du_lieu": "Route de Sor\u00e8de", "geo_point_2d": [42.5451558412409, 3.01921445117057], "code_postal": "66700", "horaires_de_distribution": "10/12h", "ville": "ARGELES SUR MER", "infos": "Ateliers Municipaux", "departement": "66"}, "geometry": {"type": "Point", "coordinates": [3.01921445117057, 42.5451558412409]}, "record_timestamp": "2022-04-11T07:02:22.624+02:00"},{"datasetid": "solidarite-alimentaire-en-occitanie", "recordid": "20ba37d023407e785c26178556220b8da4c9e0c8", "fields": {"geo_shape": {"coordinates": [2.42370086924889, 42.618503503631], "type": "Point"}, "objectid": 1179, "organisme_coordinateur": "CROIX ROUGE", "association": "Equipe Locale de Prades", "pr_ciser_les_jours": "VENDREDI", "adresse_du_lieu": "24, all\u00e9e Arago", "geo_point_2d": [42.618503503631, 2.42370086924889], "code_postal": "66500", "horaires_de_distribution": "14h30/17h", "ville": "PRADES", "departement": "66"}, "geometry": {"type": "Point", "coordinates": [2.42370086924889, 42.618503503631]}, "record_timestamp": "2022-04-11T07:02:22.624+02:00"},{"datasetid": "solidarite-alimentaire-en-occitanie", "recordid": "35702e1e4072defff1b83a2762be5371aa514ba6", "fields": {"pr_ciser_les_jours": "A la demande", "mail_ref": "annie,caponi@live.fr", "code_postal": "48400", "ville": "FLORAC TROIS RIVIERES", "departement": "48", "jours_distribution": "certains_jours", "geo_shape": {"coordinates": [2.241210937499368, 43.75045701529479], "type": "Point"}, "tel_ref": "0466450652", "objectid": 1334, "organisme_coordinateur": "CROIX ROUGE FRANCAISE DE LOZERE - DELEGATION TERRITORIALE", "association": "Croix Rouge, FLORAC", "adresse_du_lieu": "Place Paul Comte", "geo_point_2d": [43.75045701529479, 2.241210937499368]}, "geometry": {"type": "Point", "coordinates": [2.241210937499368, 43.75045701529479]}, "record_timestamp": "2022-04-11T07:02:22.624+02:00"},{"datasetid": "solidarite-alimentaire-en-occitanie", "recordid": "8f5f305b26f6ee5d2bc82589093aed28709df7c9", "fields": {"pr_ciser_les_jours": "le mardi", "code_postal": "32190", "horaires_de_distribution": "9H30/11H30 et 14H/16H30", "ville": "Vic-Fezensac", "departement": "32", "jours_distribution": "certains_jours", "geo_shape": {"coordinates": [0.30638925000001205, 43.75811699999999], "type": "Point"}, "tel_ref": "0800323130 num\u00e9ro vert de 8H30 \u00e0 18H30", "site_web_asso": "http://www.vic-accueil.fr/", "objectid": 1331, "association": "Centre social Vic-Accueil", "adresse_du_lieu": "13 rue jean Jaur\u00e8s", "geo_point_2d": [43.75811699999999, 0.30638925000001205]}, "geometry": {"type": "Point", "coordinates": [0.30638925000001205, 43.75811699999999]}, "record_timestamp": "2022-04-11T07:02:22.624+02:00"},{"datasetid": "solidarite-alimentaire-en-occitanie", "recordid": "7fbe93978a7b75889511591d6159d64b9b82f91e", "fields": {"jours_distribution": "certains_jours", "geo_shape": {"coordinates": [-0.08511301055904501, 43.65784274247528], "type": "Point"}, "tel_ref": "0 800 32 31 30", "objectid": 1319, "organisme_coordinateur": "Banque Alimentaire du Gers", "association": "Sol'Adour", "pr_ciser_les_jours": "Mardi", "adresse_du_lieu": "au village", "geo_point_2d": [43.65784274247528, -0.08511301055904501], "code_postal": "32400", "ville": "Riscle", "departement": "32"}, "geometry": {"type": "Point", "coordinates": [-0.08511301055904501, 43.65784274247528]}, "record_timestamp": "2022-04-11T07:02:22.624+02:00"},{"datasetid": "solidarite-alimentaire-en-occitanie", "recordid": "0f048c61c96ba1259e9f593ef7df29b96ce50be6", "fields": {"jours_distribution": "certains_jours", "geo_shape": {"coordinates": [2.619078653067106, 43.09087995614291], "type": "Point"}, "objectid": 1308, "association": "SOLIDA LAGRASSE", "pr_ciser_les_jours": "Contactez l'organisme", "adresse_du_lieu": "9 Rue Foy", "geo_point_2d": [43.09087995614291, 2.619078653067106], "mail_ref": "solidalagrasse@gmail.com", "code_postal": "11120", "ville": "LAGRASSE", "departement": "11"}, "geometry": {"type": "Point", "coordinates": [2.619078653067106, 43.09087995614291]}, "record_timestamp": "2022-04-11T07:02:22.624+02:00"},{"datasetid": "solidarite-alimentaire-en-occitanie", "recordid": "0248f72f257fe9023294fb2cc53744a0c84c8240", "fields": {"pr_ciser_les_jours": "Tous les mardis", "mail_ref": "eprales@orange.fr", "code_postal": "30380", "horaires_de_distribution": "14-16H", "ville": "SAINT CHRISTOL LES ALES", "departement": "30", "jours_distribution": "certains_jours", "geo_shape": {"coordinates": [2.241210937499368, 43.75045701529479], "type": "Point"}, "tel_ref": "0466524235", "objectid": 1296, "organisme_coordinateur": "Entr'aide Protestante d'Al\u00e8s", "association": "ENTRAIDE PROTESTANTE SAINT CHRISTOL LES ALES", "adresse_du_lieu": "Devant le CMS St Christol", "geo_point_2d": [43.75045701529479, 2.241210937499368]}, "geometry": {"type": "Point", "coordinates": [2.241210937499368, 43.75045701529479]}, "record_timestamp": "2022-04-11T07:02:22.624+02:00"},{"datasetid": "solidarite-alimentaire-en-occitanie", "recordid": "c0502888c69d2adad53b553f308a0ffdcea3515a", "fields": {"pr_ciser_les_jours": "Tous les mardis", "mail_ref": "eprales@orange.fr", "code_postal": "30100", "horaires_de_distribution": "9H-11H30", "ville": "ALES", "departement": "30", "jours_distribution": "certains_jours", "geo_shape": {"coordinates": [2.241210937499368, 43.75045701529479], "type": "Point"}, "tel_ref": "0466524235", "objectid": 1295, "organisme_coordinateur": "Entr'aide Protestante d'Al\u00e8s45", "association": "ENTRAIDE PROTESTANTE ALES", "adresse_du_lieu": "45 rue Marcel Cachin", "geo_point_2d": [43.75045701529479, 2.241210937499368]}, "geometry": {"type": "Point", "coordinates": [2.241210937499368, 43.75045701529479]}, "record_timestamp": "2022-04-11T07:02:22.624+02:00"},{"datasetid": "solidarite-alimentaire-en-occitanie", "recordid": "678f96602dfe72c0a4bb917032c612e015b63ab5", "fields": {"jours_distribution": "certains_jours", "geo_shape": {"coordinates": [0.09206500000004701, 43.277884088000064], "type": "Point"}, "tel_ref": "05 62 37 62 80", "objectid": 1290, "association": "MAIRIE BOURS", "pr_ciser_les_jours": "-", "adresse_du_lieu": "1 rue de la r\u00e9publique", "geo_point_2d": [43.277884088000064, 0.09206500000004701], "mail_ref": "mairie.bours65@orange.fr", "code_postal": "65460", "ville": "BOURS", "departement": "65"}, "geometry": {"type": "Point", "coordinates": [0.09206500000004701, 43.277884088000064]}, "record_timestamp": "2022-04-11T07:02:22.624+02:00"},{"datasetid": "solidarite-alimentaire-en-occitanie", "recordid": "f919ae4b418a1de60ccaf35380d4cd1340e8d8f2", "fields": {"jours_distribution": "certains_jours", "geo_shape": {"coordinates": [0.039055500000006, 43.320086999999994], "type": "Point"}, "tel_ref": "05 62 31 22 96", "objectid": 1289, "association": "MAIRIE SIARROUY", "pr_ciser_les_jours": "-", "adresse_du_lieu": "1 Place de la Mairie", "geo_point_2d": [43.320086999999994, 0.039055500000006], "mail_ref": "\u200emairie.siarrouy@wanadoo.fr", "code_postal": "65501", "ville": "SIARROUY", "departement": "65"}, "geometry": {"type": "Point", "coordinates": [0.039055500000006, 43.320086999999994]}, "record_timestamp": "2022-04-11T07:02:22.624+02:00"},{"datasetid": "solidarite-alimentaire-en-occitanie", "recordid": "faadb86b5d887b0b98860c7ca6aa834533142ac1", "fields": {"jours_distribution": "certains_jours", "geo_shape": {"coordinates": [0.056551500000011, 43.384553999999994], "type": "Point"}, "tel_ref": "05 62 96 71 48", "objectid": 1281, "association": "Croix Rouge VIC", "pr_ciser_les_jours": "Distribution alimentaire les mardis apr\u00e8s midi // sauf la semaine du deuxi\u00e8me mercredi du mois, la distribution se fait le mercredi matin.", "adresse_du_lieu": "RUE BARRERE DE VIEUZAC CENTRE SOCIO CULTUREL", "geo_point_2d": [43.384553999999994, 0.056551500000011], "mail_ref": "dl.vicbigorre@wanadoo.fr", "code_postal": "65500", "ville": "Vic en Bigorre", "departement": "65"}, "geometry": {"type": "Point", "coordinates": [0.056551500000011, 43.384553999999994]}, "record_timestamp": "2022-04-11T07:02:22.624+02:00"},{"datasetid": "solidarite-alimentaire-en-occitanie", "recordid": "04c90b4c5c7d0d182d318956037c3e40aa66d088", "fields": {"pr_ciser_les_jours": "Jeudi tous les 15 jours \u00e0 compter du 9 avril 2020", "mail_ref": "ad30.saintchristollesales@restosducoeur.org", "code_postal": "30380", "horaires_de_distribution": "9H-10H30", "ville": "SAINT CHRISTOL LES ALES", "departement": "30", "jours_distribution": "certains_jours", "geo_shape": {"coordinates": [2.241210937499368, 43.75045701529479], "type": "Point"}, "tel_ref": "0980341792", "objectid": 1267, "organisme_coordinateur": "Restos du Coeur", "association": "SAINT CHRISTOL LES ALES", "adresse_du_lieu": "Chemin du Rouret", "geo_point_2d": [43.75045701529479, 2.241210937499368]}, "geometry": {"type": "Point", "coordinates": [2.241210937499368, 43.75045701529479]}, "record_timestamp": "2022-04-11T07:02:22.624+02:00"},{"datasetid": "solidarite-alimentaire-en-occitanie", "recordid": "e0c138540e6a1184c92b130febda8bb83f90b5fb", "fields": {"pr_ciser_les_jours": "Tous les mardis", "mail_ref": "ad30.saintambroix@restosducoeur.org", "code_postal": "30500", "horaires_de_distribution": "9H-11H30", "ville": "SAINT AMBROIX", "infos": "Centre itin\u00e9rant", "departement": "30", "jours_distribution": "certains_jours", "geo_shape": {"coordinates": [2.241210937499368, 43.75045701529479], "type": "Point"}, "tel_ref": "0980341792", "objectid": 1266, "organisme_coordinateur": "Restos du Coeur", "association": "SAINT AMBROIX", "adresse_du_lieu": "All\u00e9e de la Gare", "geo_point_2d": [43.75045701529479, 2.241210937499368]}, "geometry": {"type": "Point", "coordinates": [2.241210937499368, 43.75045701529479]}, "record_timestamp": "2022-04-11T07:02:22.624+02:00"},{"datasetid": "solidarite-alimentaire-en-occitanie", "recordid": "2abb15f92d2a470041d1260b51c0a964b67a9d37", "fields": {"pr_ciser_les_jours": "Tous les quinze jours", "mail_ref": "contact@spf48.org", "code_postal": "48160", "horaires_de_distribution": "le samedi de 10h \u00e0 12h", "ville": "COLLET DE DEZE", "departement": "48", "jours_distribution": "certains_jours", "geo_shape": {"coordinates": [3.918658255488653, 44.2473388920094], "type": "Point"}, "tel_ref": "06 38 68 77 99", "objectid": 1252, "organisme_coordinateur": "SPF LOZERE", "association": "SECOURS POPULAIRE FRANCAIS - COLLET DE DEZE", "adresse_du_lieu": "Maison de sant\u00e9 RN 106", "geo_point_2d": [44.2473388920094, 3.918658255488653]}, "geometry": {"type": "Point", "coordinates": [3.918658255488653, 44.2473388920094]}, "record_timestamp": "2022-04-11T07:02:22.624+02:00"},{"datasetid": "solidarite-alimentaire-en-occitanie", "recordid": "15ad486530f3dbc1256b0f21da31d8a63134f453", "fields": {"geo_shape": {"coordinates": [3.46887582442422, 43.3120095676113], "type": "Point"}, "tel_ref": "04 67 01 76 73", "objectid": 1245, "organisme_coordinateur": "SPF F\u00e9d\u00e9ration de l'HERAULT", "association": "Secours populaire : Agde", "adresse_du_lieu": "7, rue Berthelot", "geo_point_2d": [43.3120095676113, 3.46887582442422], "code_postal": "34300", "horaires_de_distribution": "Toutes les structures distribuent sur appel t\u00e9l\u00e9phonique", "ville": "agde", "departement": "34"}, "geometry": {"type": "Point", "coordinates": [3.46887582442422, 43.3120095676113]}, "record_timestamp": "2022-04-11T07:02:22.624+02:00"},{"datasetid": "solidarite-alimentaire-en-occitanie", "recordid": "8b7a0fd53cb9161e0f448acc5055a419d019d8bf", "fields": {"pr_ciser_les_jours": "jeudi en alternance avec le Secours Populaire Fran\u00e7ais pour les mois de juin, ao\u00fbt et octobre", "mail_ref": "ul.mende@croix-rouge.fr", "code_postal": "48000", "horaires_de_distribution": "14H \u00e0 18H", "ville": "Mende", "departement": "48", "jours_distribution": "certains_jours", "geo_shape": {"coordinates": [3.49455379491825, 44.5180953251134], "type": "Point"}, "tel_ref": "0466491204", "objectid": 1216, "organisme_coordinateur": "Croix Rouge", "association": "Croix Rouge Mende", "adresse_du_lieu": "Maison Colucci 14 avenue Foch", "geo_point_2d": [44.5180953251134, 3.49455379491825]}, "geometry": {"type": "Point", "coordinates": [3.49455379491825, 44.5180953251134]}, "record_timestamp": "2022-04-11T07:02:22.624+02:00"},{"datasetid": "solidarite-alimentaire-en-occitanie", "recordid": "84305df4e43bf4c665e6706cf0b6d46b809a698c", "fields": {"pr_ciser_les_jours": "Tous les mardis (p\u00e9riode COVID)", "mail_ref": "ul.figeac@croix-rouge.fr", "code_postal": "46100", "horaires_de_distribution": "10H30-14H", "ville": "Figeac", "departement": "46", "jours_distribution": "certains_jours", "geo_shape": {"coordinates": [2.03073181604654, 44.6124873562716], "type": "Point"}, "tel_ref": "0565341336", "objectid": 1213, "organisme_coordinateur": "La Croix Rouge", "association": "Croix Rouge Figeac", "adresse_du_lieu": "12 avenue Casimir Marcenac", "geo_point_2d": [44.6124873562716, 2.03073181604654]}, "geometry": {"type": "Point", "coordinates": [2.03073181604654, 44.6124873562716]}, "record_timestamp": "2022-04-11T07:02:22.624+02:00"},{"datasetid": "solidarite-alimentaire-en-occitanie", "recordid": "095b42f77b5edebca2335eed7f51156f513fd3fc", "fields": {"pr_ciser_les_jours": "2\u00e8me mardi PM - merc AM matin du mois.", "mail_ref": "spfsouillac@orange.fr", "code_postal": "46200", "ville": "Souillac", "departement": "46", "jours_distribution": "certains_jours", "geo_shape": {"coordinates": [1.47402127274116, 44.8958767895387], "type": "Point"}, "tel_ref": "0565320169", "objectid": 1211, "organisme_coordinateur": "SPF F\u00e9d\u00e9ration LOT", "association": "Souillac", "adresse_du_lieu": "24, av Martin Malvy", "geo_point_2d": [44.8958767895387, 1.47402127274116]}, "geometry": {"type": "Point", "coordinates": [1.47402127274116, 44.8958767895387]}, "record_timestamp": "2022-04-11T07:02:22.624+02:00"},{"datasetid": "solidarite-alimentaire-en-occitanie", "recordid": "8bc8094af88ab579a7c3a72d27782aaf73f9fe05", "fields": {"pr_ciser_les_jours": "Jeudi", "code_postal": "48150", "horaires_de_distribution": "14h00 \u00e0 17h00", "ville": "MEYRUEIS", "departement": "48", "jours_distribution": "certains_jours", "geo_shape": {"coordinates": [2.241210937499368, 43.75045701529479], "type": "Point"}, "tel_ref": "04 66 45 65 74", "objectid": 1338, "organisme_coordinateur": "CROIX ROUGE FRANCAISE D\u00e9l\u00e9gation Territoriale", "association": "Croix Rouge, MEYRUEIS", "adresse_du_lieu": "Place du Champ de Mars", "geo_point_2d": [43.75045701529479, 2.241210937499368]}, "geometry": {"type": "Point", "coordinates": [2.241210937499368, 43.75045701529479]}, "record_timestamp": "2022-04-11T07:02:22.624+02:00"},{"datasetid": "solidarite-alimentaire-en-occitanie", "recordid": "2249b3cb7f7a4a85798fc5b362450b596e06f26d", "fields": {"pr_ciser_les_jours": "Mercredi", "mail_ref": "ul.langogne@croix-rouge.fr", "code_postal": "48300", "horaires_de_distribution": "14h00 \u00e0 17h00", "ville": "LANGOGNE", "departement": "48", "jours_distribution": "certains_jours", "geo_shape": {"coordinates": [2.241210937499368, 43.75045701529479], "type": "Point"}, "tel_ref": "04 66 69 26 34", "objectid": 1339, "organisme_coordinateur": "CROIX ROUGE FRANCAISE D\u00e9l\u00e9gation Territoriale", "association": "Croix Rouge LANGOGNE", "adresse_du_lieu": "2 rue F\u00e9lix Viallet", "geo_point_2d": [43.75045701529479, 2.241210937499368]}, "geometry": {"type": "Point", "coordinates": [2.241210937499368, 43.75045701529479]}, "record_timestamp": "2022-04-11T07:02:22.624+02:00"},{"datasetid": "solidarite-alimentaire-en-occitanie", "recordid": "98c6511d0fa860a3a1bde63a4a1727e7a9996647", "fields": {"pr_ciser_les_jours": "2e et 4e vendredi du mois", "code_postal": "32400", "horaires_de_distribution": "13H/17H", "ville": "SAINT GERME", "departement": "32", "jours_distribution": "certains_jours", "geo_shape": {"coordinates": [2.241210937499368, 43.75045701529479], "type": "Point"}, "tel_ref": "0788481435 / 0 800 32 31 30 de 8H30 \u00e0 18H", "objectid": 1355, "organisme_coordinateur": "CROIX ROUGE", "association": "SAINT GERME", "adresse_du_lieu": "Porte \u00e0 porte", "geo_point_2d": [43.75045701529479, 2.241210937499368]}, "geometry": {"type": "Point", "coordinates": [2.241210937499368, 43.75045701529479]}, "record_timestamp": "2022-04-11T07:02:22.624+02:00"},{"datasetid": "solidarite-alimentaire-en-occitanie", "recordid": "9c98cf4e6751be7e5ab43c25840417afeb3d2ff6", "fields": {"pr_ciser_les_jours": "-", "mail_ref": "contact@spf65.org", "code_postal": "65300", "horaires_de_distribution": "-", "ville": "LANNEMEZAN", "infos": "-", "departement": "65", "jours_distribution": "certains_jours", "geo_shape": {"coordinates": [2.241210937499368, 43.75045701529479], "type": "Point"}, "tel_ref": "0562983395", "objectid": 1360, "organisme_coordinateur": "Secours Populaire", "association": "Secours Populaire LANNEMEZAN", "adresse_du_lieu": "512 RUE GEORGE CL\u00c9MENCEAU", "geo_point_2d": [43.75045701529479, 2.241210937499368]}, "geometry": {"type": "Point", "coordinates": [2.241210937499368, 43.75045701529479]}, "record_timestamp": "2022-04-11T07:02:22.624+02:00"},{"datasetid": "solidarite-alimentaire-en-occitanie", "recordid": "938a67a3e35051f2ed736a63a12f7772cd1e54a3", "fields": {"geo_shape": {"coordinates": [1.87119787932578, 42.970846191012], "type": "Point"}, "objectid": 457, "organisme_coordinateur": "SPF F\u00e9d\u00e9ration Ari\u00e8ge", "association": "Secours populaire : Laroque d'Olmes", "adresse_du_lieu": "9, rue du 19 mars 1962", "geo_point_2d": [42.970846191012, 1.87119787932578], "code_postal": "09600", "horaires_de_distribution": "tous les 15 jours                            vendredi  14h - 17h", "ville": "laroque d'olmes", "departement": "09"}, "geometry": {"type": "Point", "coordinates": [1.87119787932578, 42.970846191012]}, "record_timestamp": "2022-04-11T07:02:22.624+02:00"},{"datasetid": "solidarite-alimentaire-en-occitanie", "recordid": "073c6b93c71d85c256a027cc8911a17a1eef0924", "fields": {"pr_ciser_les_jours": "mardi", "mail_ref": "seysses.spf@gmail.com", "code_postal": "31600", "horaires_de_distribution": "14h \u00e0 17h", "ville": "Seysses", "departement": "31", "jours_distribution": "certains_jours", "geo_shape": {"coordinates": [1.3123465411039001, 43.4969852166193], "type": "Point"}, "tel_ref": "0562140338 / 0534337771", "objectid": 449, "organisme_coordinateur": "SPF F\u00e9d\u00e9ration haute garonne", "association": "Secours populaire : Seysses", "adresse_du_lieu": "26 rue de la R\u00e9publique", "geo_point_2d": [43.4969852166193, 1.3123465411039001]}, "geometry": {"type": "Point", "coordinates": [1.3123465411039001, 43.4969852166193]}, "record_timestamp": "2022-04-11T07:02:22.624+02:00"},{"datasetid": "solidarite-alimentaire-en-occitanie", "recordid": "19de8806ae38ef276afdf83349e57bda54ca1799", "fields": {"pr_ciser_les_jours": "vendredi", "mail_ref": "yvetteb3@orange.fr", "code_postal": "31560", "horaires_de_distribution": "Vendredi 14h - 17h", "ville": "Nailloux", "departement": "31", "jours_distribution": "certains_jours", "geo_shape": {"coordinates": [1.62267436737965, 43.35605465661], "type": "Point"}, "tel_ref": "0688970379", "objectid": 447, "organisme_coordinateur": "SPF F\u00e9d\u00e9ration haute garonne", "association": "Secours populaire : Nailloux", "adresse_du_lieu": "2, rue basse", "geo_point_2d": [43.35605465661, 1.62267436737965]}, "geometry": {"type": "Point", "coordinates": [1.62267436737965, 43.35605465661]}, "record_timestamp": "2022-04-11T07:02:22.624+02:00"},{"datasetid": "solidarite-alimentaire-en-occitanie", "recordid": "df8a7e8b2044aae66342d7260dc3b3384860442b", "fields": {"mail_ref": "spf.st.orens@orange.fr", "code_postal": "31650", "horaires_de_distribution": "tous les 15 jours", "ville": "Saint Orens", "departement": "31", "jours_distribution": "quotidien", "geo_shape": {"coordinates": [1.52975006431029, 43.5618518207736], "type": "Point"}, "tel_ref": "0561390811", "objectid": 441, "organisme_coordinateur": "SPF F\u00e9d\u00e9ration haute garonne", "association": "Secours populaire : saint Orens", "adresse_du_lieu": "5, rue du Partanais", "geo_point_2d": [43.5618518207736, 1.52975006431029]}, "geometry": {"type": "Point", "coordinates": [1.52975006431029, 43.5618518207736]}, "record_timestamp": "2022-04-11T07:02:22.624+02:00"},{"datasetid": "solidarite-alimentaire-en-occitanie", "recordid": "d48e954b91bf89289239c40d431d90b36b7007f3", "fields": {"pr_ciser_les_jours": "du lundi au vendredi", "mail_ref": "contact@spf31.org", "code_postal": "31200", "horaires_de_distribution": "9h \u00e0 12h et de 14h \u00e0 17h30", "ville": "Toulouse", "departement": "31", "jours_distribution": "certains_jours", "geo_shape": {"coordinates": [1.4306853307096201, 43.6355450467271], "type": "Point"}, "tel_ref": "0534403440", "objectid": 437, "organisme_coordinateur": "SPF F\u00e9d\u00e9ration haute garonne", "association": "Secours populaire : Toulouse", "adresse_du_lieu": "147, av des Etats Unis", "geo_point_2d": [43.6355450467271, 1.4306853307096201]}, "geometry": {"type": "Point", "coordinates": [1.4306853307096201, 43.6355450467271]}, "record_timestamp": "2022-04-11T07:02:22.624+02:00"},{"datasetid": "solidarite-alimentaire-en-occitanie", "recordid": "3338a9465a900f321f3da34eb37d32a6893d291c", "fields": {"mail_ref": "contact@mi2s.org", "code_postal": "31300", "horaires_de_distribution": "Divers horaires en fonction des quartiers", "ville": "Toulouse", "infos": "l'association MI2S Ressources solidaires aide les personnes vivant dans la rue, en bidonvilles, en squats, dans les \"h\u00f4tels 115\" et dans certains quartiers prioritaires de la politique de la ville. Concernant l'alimentation, l'association fournit une aide alimentaire ponctuelle et oriente les personnes vers les distributions de colis des autres associations.", "departement": "31", "jours_distribution": "quotidien", "geo_shape": {"coordinates": [1.4213461270123, 43.5941917226942], "type": "Point"}, "tel_ref": "0674386585 (pour signaler les personnes en difficult\u00e9)", "objectid": 436, "organisme_coordinateur": "MI2S", "association": "MI2S chez Imaginations fertiles", "adresse_du_lieu": "27 bis all\u00e9es maurice Sarraut", "geo_point_2d": [43.5941917226942, 1.4213461270123]}, "geometry": {"type": "Point", "coordinates": [1.4213461270123, 43.5941917226942]}, "record_timestamp": "2022-04-11T07:02:22.624+02:00"},{"datasetid": "solidarite-alimentaire-en-occitanie", "recordid": "db1cee0b7c7e5f8b43befc62dc5248a58b2591d3", "fields": {"geo_shape": {"coordinates": [4.08766050003792, 43.7857290000941], "type": "Point"}, "objectid": 415, "association": "\u00e9picerie solidaire de CALADE", "adresse_du_lieu": "1 rue poterie", "geo_point_2d": [43.7857290000941, 4.08766050003792], "code_postal": "30250", "ville": "Sommi\u00e8res", "departement": "30"}, "geometry": {"type": "Point", "coordinates": [4.08766050003792, 43.7857290000941]}, "record_timestamp": "2022-04-11T07:02:22.624+02:00"},{"datasetid": "solidarite-alimentaire-en-occitanie", "recordid": "878b6bbce1d143968af55354e04362f2b3e334a2", "fields": {"geo_shape": {"coordinates": [0.5894669283194941, 43.6448634841687], "type": "Point"}, "objectid": 413, "association": "ESCALE", "adresse_du_lieu": "Rue Pasteur", "geo_point_2d": [43.6448634841687, 0.5894669283194941], "code_postal": "32000", "ville": "Auch", "departement": "32"}, "geometry": {"type": "Point", "coordinates": [0.5894669283194941, 43.6448634841687]},